[
  {
    "name": "北京市",
    "center": {
      "type": "Point",
      "coordinates": [
        116.397551,
        39.906947
      ]
    },
    "updated_at": "2020/02/05 20:07:48",
    "pois": [
      {
        "name": "梨园当代名筑家园（疑似）",
        "geometry": {
          "type": "Point",
          "coordinates": [
            116.665124,
            39.889574
          ]
        },
        "point": {
          "type": "Point",
          "coordinates": [
            116.665124,
            39.889574
          ]
        },
        "date": "2020-02-06"
      },
      {
        "name": "宋庄小堡村西街（疑似）",
        "geometry": {
          "type": "Point",
          "coordinates": [
            116.714725,
            39.948352
          ]
        },
        "point": {
          "type": "Point",
          "coordinates": [
            116.714725,
            39.948352
          ]
        },
        "date": "2020-02-06"
      },
      {
        "name": "惠兰美居（疑似）",
        "geometry": {
          "type": "Point",
          "coordinates": [
            116.677037,
            39.943649
          ]
        },
        "point": {
          "type": "Point",
          "coordinates": [
            116.677037,
            39.943649
          ]
        },
        "date": "2020-02-06"
      },
      {
        "name": "玉桥东里小区（疑似）",
        "geometry": {
          "type": "Point",
          "coordinates": [
            116.691493,
            39.886392
          ]
        },
        "point": {
          "type": "Point",
          "coordinates": [
            116.691493,
            39.886392
          ]
        },
        "date": "2020-02-06"
      },
      {
        "name": "苹果园一区（疑似）",
        "geometry": {
          "type": "Point",
          "coordinates": [
            116.192225,
            39.930763
          ]
        },
        "point": {
          "type": "Point",
          "coordinates": [
            116.192225,
            39.930763
          ]
        },
        "date": "2020-02-06"
      },
      {
        "name": "方庄芳星园（疑似）",
        "geometry": {
          "type": "Point",
          "coordinates": [
            116.435587,
            39.861633
          ]
        },
        "point": {
          "type": "Point",
          "coordinates": [
            116.435587,
            39.861633
          ]
        },
        "date": "2020-02-06"
      },
      {
        "name": "康营小区（疑似）",
        "geometry": {
          "type": "Point",
          "coordinates": [
            116.542494,
            40.035483
          ]
        },
        "point": {
          "type": "Point",
          "coordinates": [
            116.542494,
            40.035483
          ]
        },
        "date": "2020-02-06"
      },
      {
        "name": "望京西园一区（疑似）",
        "geometry": {
          "type": "Point",
          "coordinates": [
            116.475916,
            40.00449
          ]
        },
        "point": {
          "type": "Point",
          "coordinates": [
            116.475916,
            40.00449
          ]
        },
        "date": "2020-02-06"
      },
      {
        "name": "北苑家园清友园（疑似）",
        "geometry": {
          "type": "Point",
          "coordinates": [
            116.427997,
            40.039291
          ]
        },
        "point": {
          "type": "Point",
          "coordinates": [
            116.427997,
            40.039291
          ]
        },
        "date": "2020-02-06"
      },
      {
        "name": "酒仙桥电子城一号楼（疑似）",
        "geometry": {
          "type": "Point",
          "coordinates": [
            116.490724,
            39.98365
          ]
        },
        "point": {
          "type": "Point",
          "coordinates": [
            116.490724,
            39.98365
          ]
        },
        "date": "2020-02-06"
      },
      {
        "name": "育新花园（疑似）",
        "geometry": {
          "type": "Point",
          "coordinates": [
            116.345377,
            40.056801
          ]
        },
        "point": {
          "type": "Point",
          "coordinates": [
            116.345377,
            40.056801
          ]
        },
        "date": "2020-02-06"
      },
      {
        "name": "世纪城（疑似）",
        "geometry": {
          "type": "Point",
          "coordinates": [
            116.28476,
            39.959934
          ]
        },
        "point": {
          "type": "Point",
          "coordinates": [
            116.28476,
            39.959934
          ]
        },
        "date": "2020-02-06"
      },
      {
        "name": "颐美园（疑似）",
        "geometry": {
          "type": "Point",
          "coordinates": [
            116.272936,
            40.03022
          ]
        },
        "point": {
          "type": "Point",
          "coordinates": [
            116.272936,
            40.03022
          ]
        },
        "date": "2020-02-06"
      },
      {
        "name": "新纪元家园（疑似）",
        "geometry": {
          "type": "Point",
          "coordinates": [
            116.2991,
            39.964817
          ]
        },
        "point": {
          "type": "Point",
          "coordinates": [
            116.2991,
            39.964817
          ]
        },
        "date": "2020-02-06"
      },
      {
        "name": "方清园（疑似）",
        "geometry": {
          "type": "Point",
          "coordinates": [
            116.374062,
            40.032627
          ]
        },
        "point": {
          "type": "Point",
          "coordinates": [
            116.374062,
            40.032627
          ]
        },
        "date": "2020-02-06"
      },
      {
        "name": "富力桃园（疑似）",
        "geometry": {
          "type": "Point",
          "coordinates": [
            116.378877,
            40.063637
          ]
        },
        "point": {
          "type": "Point",
          "coordinates": [
            116.378877,
            40.063637
          ]
        },
        "date": "2020-02-06"
      },
      {
        "name": "农大绿苑（疑似）",
        "geometry": {
          "type": "Point",
          "coordinates": [
            116.288407,
            40.029792
          ]
        },
        "point": {
          "type": "Point",
          "coordinates": [
            116.288407,
            40.029792
          ]
        },
        "date": "2020-02-06"
      },
      {
        "name": "马连洼柳浪家园（疑似）",
        "geometry": {
          "type": "Point",
          "coordinates": [
            116.297198,
            40.030638
          ]
        },
        "point": {
          "type": "Point",
          "coordinates": [
            116.297198,
            40.030638
          ]
        },
        "date": "2020-02-06"
      },
      {
        "name": "永泰庄宝盛里小区（疑似）",
        "geometry": {
          "type": "Point",
          "coordinates": [
            116.369583,
            40.03656
          ]
        },
        "point": {
          "type": "Point",
          "coordinates": [
            116.369583,
            40.03656
          ]
        },
        "date": "2020-02-06"
      },
      {
        "name": "真武家园（疑似）",
        "geometry": {
          "type": "Point",
          "coordinates": [
            116.348544,
            39.904586
          ]
        },
        "point": {
          "type": "Point",
          "coordinates": [
            116.348544,
            39.904586
          ]
        },
        "date": "2020-02-06"
      },
      {
        "name": "窦店镇河口村（确诊）",
        "geometry": {
          "type": "Point",
          "coordinates": [
            116.167446,
            39.652186
          ]
        },
        "point": {
          "type": "Point",
          "coordinates": [
            116.167446,
            39.652186
          ]
        },
        "date": "2020-02-06"
      },
      {
        "name": "珠江四季悦城（确诊）",
        "geometry": {
          "type": "Point",
          "coordinates": [
            116.583312,
            39.760059
          ]
        },
        "point": {
          "type": "Point",
          "coordinates": [
            116.583312,
            39.760059
          ]
        },
        "date": "2020-02-06"
      },
      {
        "name": "北京空军干休所大院（确诊）",
        "geometry": {
          "type": "Point",
          "coordinates": [
            116.372774,
            39.984875
          ]
        },
        "point": {
          "type": "Point",
          "coordinates": [
            116.372774,
            39.984875
          ]
        },
        "date": "2020-02-06"
      },
      {
        "name": "千鹤家园（确诊）",
        "geometry": {
          "type": "Point",
          "coordinates": [
            116.41951,
            39.987452
          ]
        },
        "point": {
          "type": "Point",
          "coordinates": [
            116.41951,
            39.987452
          ]
        },
        "date": "2020-02-06"
      },
      {
        "name": "华信医院（确诊）",
        "geometry": {
          "type": "Point",
          "coordinates": [
            116.495622,
            39.965455
          ]
        },
        "point": {
          "type": "Point",
          "coordinates": [
            116.495622,
            39.965455
          ]
        },
        "date": "2020-02-06"
      },
      {
        "name": "海军研究院（确诊）",
        "geometry": {
          "type": "Point",
          "coordinates": [
            116.324032,
            39.921993
          ]
        },
        "point": {
          "type": "Point",
          "coordinates": [
            116.324032,
            39.921993
          ]
        },
        "date": "2020-02-06"
      },
      {
        "name": "空港街道龙湖滟澜山（确诊）",
        "geometry": {
          "type": "Point",
          "coordinates": [
            116.501345,
            40.091729
          ]
        },
        "point": {
          "type": "Point",
          "coordinates": [
            116.501345,
            40.091729
          ]
        },
        "date": "2020-02-06"
      },
      {
        "name": "瑞康家园小区（确诊）",
        "geometry": {
          "type": "Point",
          "coordinates": [
            116.342029,
            39.739248
          ]
        },
        "point": {
          "type": "Point",
          "coordinates": [
            116.342029,
            39.739248
          ]
        },
        "date": "2020-02-06"
      },
      {
        "name": "泰禾中央广场（确诊）",
        "geometry": {
          "type": "Point",
          "coordinates": [
            116.322161,
            39.7146
          ]
        },
        "point": {
          "type": "Point",
          "coordinates": [
            116.322161,
            39.7146
          ]
        },
        "date": "2020-02-06"
      },
      {
        "name": "天通苑北一区（确诊）",
        "geometry": {
          "type": "Point",
          "coordinates": [
            116.417835,
            40.076661
          ]
        },
        "point": {
          "type": "Point",
          "coordinates": [
            116.417835,
            40.076661
          ]
        },
        "date": "2020-02-06"
      },
      {
        "name": "龙泽苑东区（确诊）",
        "geometry": {
          "type": "Point",
          "coordinates": [
            116.327374,
            40.072996
          ]
        },
        "point": {
          "type": "Point",
          "coordinates": [
            116.327374,
            40.072996
          ]
        },
        "date": "2020-02-06"
      },
      {
        "name": "西潞东里小区（确诊）",
        "geometry": {
          "type": "Point",
          "coordinates": [
            116.135335,
            39.733345
          ]
        },
        "point": {
          "type": "Point",
          "coordinates": [
            116.135335,
            39.733345
          ]
        },
        "date": "2020-02-06"
      },
      {
        "name": "于家务回族乡崔各庄村（确诊）",
        "geometry": {
          "type": "Point",
          "coordinates": [
            116.714225,
            39.693599
          ]
        },
        "point": {
          "type": "Point",
          "coordinates": [
            116.714225,
            39.693599
          ]
        },
        "date": "2020-02-06"
      },
      {
        "name": "丰台街道电报局街小区（确诊）",
        "geometry": {
          "type": "Point",
          "coordinates": [
            116.285857,
            39.850061
          ]
        },
        "point": {
          "type": "Point",
          "coordinates": [
            116.285857,
            39.850061
          ]
        },
        "date": "2020-02-06"
      },
      {
        "name": "卢沟桥街道西府颐园（确诊）",
        "geometry": {
          "type": "Point",
          "coordinates": [
            116.267026,
            39.882345
          ]
        },
        "point": {
          "type": "Point",
          "coordinates": [
            116.267026,
            39.882345
          ]
        },
        "date": "2020-02-06"
      },
      {
        "name": "亚运村街道安慧北里（确诊）",
        "geometry": {
          "type": "Point",
          "coordinates": [
            116.414287,
            39.99565
          ]
        },
        "point": {
          "type": "Point",
          "coordinates": [
            116.414287,
            39.99565
          ]
        },
        "date": "2020-02-06"
      },
      {
        "name": "来广营明天第一城（确诊）",
        "geometry": {
          "type": "Point",
          "coordinates": [
            116.409519,
            40.048137
          ]
        },
        "point": {
          "type": "Point",
          "coordinates": [
            116.409519,
            40.048137
          ]
        },
        "date": "2020-02-06"
      },
      {
        "name": "新街口街道富国里（确诊）",
        "geometry": {
          "type": "Point",
          "coordinates": [
            116.365617,
            39.929937
          ]
        },
        "point": {
          "type": "Point",
          "coordinates": [
            116.365617,
            39.929937
          ]
        },
        "date": "2020-02-06"
      },
      {
        "name": "庑殿家苑（确诊）",
        "geometry": {
          "type": "Point",
          "coordinates": [
            116.433011,
            39.820018
          ]
        },
        "point": {
          "type": "Point",
          "coordinates": [
            116.433011,
            39.820018
          ]
        },
        "date": "2020-02-05"
      },
      {
        "name": "世界之花（确诊）",
        "geometry": {
          "type": "Point",
          "coordinates": [
            116.420757,
            39.817217
          ]
        },
        "point": {
          "type": "Point",
          "coordinates": [
            116.420757,
            39.817217
          ]
        },
        "date": "2020-02-05"
      },
      {
        "name": "原子能院（确诊）",
        "geometry": {
          "type": "Point",
          "coordinates": [
            116.047329,
            39.744398
          ]
        },
        "point": {
          "type": "Point",
          "coordinates": [
            116.047329,
            39.744398
          ]
        },
        "date": "2020-02-05"
      },
      {
        "name": "望泉西区（确诊）",
        "geometry": {
          "type": "Point",
          "coordinates": [
            116.631574,
            40.119715
          ]
        },
        "point": {
          "type": "Point",
          "coordinates": [
            116.631574,
            40.119715
          ]
        },
        "date": "2020-02-05"
      },
      {
        "name": "天居园（确诊）",
        "geometry": {
          "type": "Point",
          "coordinates": [
            116.413625,
            40.038539
          ]
        },
        "point": {
          "type": "Point",
          "coordinates": [
            116.413625,
            40.038539
          ]
        },
        "date": "2020-02-05"
      },
      {
        "name": "潘家园布丁酒店（确诊）",
        "geometry": {
          "type": "Point",
          "coordinates": [
            116.46185,
            39.875468
          ]
        },
        "point": {
          "type": "Point",
          "coordinates": [
            116.46185,
            39.875468
          ]
        },
        "date": "2020-02-05"
      },
      {
        "name": "管庄东里医院（确诊）",
        "geometry": {
          "type": "Point",
          "coordinates": [
            116.593723,
            39.915846
          ]
        },
        "point": {
          "type": "Point",
          "coordinates": [
            116.593723,
            39.915846
          ]
        },
        "date": "2020-02-05"
      },
      {
        "name": "清华双清苑8号楼（疑似）",
        "geometry": {
          "type": "Point",
          "coordinates": [
            116.342227,
            40.013486
          ]
        },
        "point": {
          "type": "Point",
          "coordinates": [
            116.342227,
            40.013486
          ]
        },
        "date": "2020-02-05"
      },
      {
        "name": "海淀黄庄皇冠假日酒店（确诊）",
        "geometry": {
          "type": "Point",
          "coordinates": [
            116.323019,
            39.975624
          ]
        },
        "point": {
          "type": "Point",
          "coordinates": [
            116.323019,
            39.975624
          ]
        },
        "date": "2020-02-05"
      },
      {
        "name": "北科大社区（确诊）",
        "geometry": {
          "type": "Point",
          "coordinates": [
            116.360852,
            39.992297
          ]
        },
        "point": {
          "type": "Point",
          "coordinates": [
            116.360852,
            39.992297
          ]
        },
        "date": "2020-02-05"
      },
      {
        "name": "香厂路某水果摊（确诊）",
        "geometry": {
          "type": "Point",
          "coordinates": [
            116.391568,
            39.887887
          ]
        },
        "point": {
          "type": "Point",
          "coordinates": [
            116.391568,
            39.887887
          ]
        },
        "date": "2020-02-05"
      },
      {
        "name": "月坛南街（确诊）",
        "geometry": {
          "type": "Point",
          "coordinates": [
            116.34546,
            39.913985
          ]
        },
        "point": {
          "type": "Point",
          "coordinates": [
            116.34546,
            39.913985
          ]
        },
        "date": "2020-02-05"
      },
      {
        "name": "北京国际酒店（确诊）",
        "geometry": {
          "type": "Point",
          "coordinates": [
            116.428472,
            39.909641
          ]
        },
        "point": {
          "type": "Point",
          "coordinates": [
            116.428472,
            39.909641
          ]
        },
        "date": "2020-02-05"
      },
      {
        "name": "花园胡同（确诊）",
        "geometry": {
          "type": "Point",
          "coordinates": [
            116.40369,
            39.947796
          ]
        },
        "point": {
          "type": "Point",
          "coordinates": [
            116.40369,
            39.947796
          ]
        },
        "date": "2020-02-05"
      },
      {
        "name": "庙城镇郑重庄村（确诊）",
        "geometry": {
          "type": "Point",
          "coordinates": [
            116.61632,
            40.285549
          ]
        },
        "point": {
          "type": "Point",
          "coordinates": [
            116.61632,
            40.285549
          ]
        },
        "date": "2020-02-05"
      },
      {
        "name": "双河南里（确诊）",
        "geometry": {
          "type": "Point",
          "coordinates": [
            116.347193,
            39.73411
          ]
        },
        "point": {
          "type": "Point",
          "coordinates": [
            116.347193,
            39.73411
          ]
        },
        "date": "2020-02-05"
      },
      {
        "name": "金茂悦北区5号院（确诊）",
        "geometry": {
          "type": "Point",
          "coordinates": [
            116.485146,
            39.755371
          ]
        },
        "point": {
          "type": "Point",
          "coordinates": [
            116.485146,
            39.755371
          ]
        },
        "date": "2020-02-05"
      },
      {
        "name": "格林云墅（确诊）",
        "geometry": {
          "type": "Point",
          "coordinates": [
            116.401656,
            39.70811
          ]
        },
        "point": {
          "type": "Point",
          "coordinates": [
            116.401656,
            39.70811
          ]
        },
        "date": "2020-02-05"
      },
      {
        "name": "天翠阳光新城（确诊）",
        "geometry": {
          "type": "Point",
          "coordinates": [
            116.121908,
            39.954361
          ]
        },
        "point": {
          "type": "Point",
          "coordinates": [
            116.121908,
            39.954361
          ]
        },
        "date": "2020-02-05"
      },
      {
        "name": "鲁谷远洋山水（确诊）",
        "geometry": {
          "type": "Point",
          "coordinates": [
            116.240023,
            39.900649
          ]
        },
        "point": {
          "type": "Point",
          "coordinates": [
            116.240023,
            39.900649
          ]
        },
        "date": "2020-02-05"
      },
      {
        "name": "玉泉北里2区（确诊）",
        "geometry": {
          "type": "Point",
          "coordinates": [
            116.24881,
            39.919428
          ]
        },
        "point": {
          "type": "Point",
          "coordinates": [
            116.24881,
            39.919428
          ]
        },
        "date": "2020-02-05"
      },
      {
        "name": "民族大学西路66号鑫德嘉园（确诊）",
        "geometry": {
          "type": "Point",
          "coordinates": [
            116.317432,
            39.949162
          ]
        },
        "point": {
          "type": "Point",
          "coordinates": [
            116.317432,
            39.949162
          ]
        },
        "date": "2020-02-05"
      },
      {
        "name": "新街口外大街15号院（确诊）",
        "geometry": {
          "type": "Point",
          "coordinates": [
            116.370061,
            39.963717
          ]
        },
        "point": {
          "type": "Point",
          "coordinates": [
            116.370061,
            39.963717
          ]
        },
        "date": "2020-02-05"
      },
      {
        "name": "高碑店乡陶家湾（确诊）",
        "geometry": {
          "type": "Point",
          "coordinates": [
            116.542548,
            39.905228
          ]
        },
        "point": {
          "type": "Point",
          "coordinates": [
            116.542548,
            39.905228
          ]
        },
        "date": "2020-02-05"
      },
      {
        "name": "北苑路86号嘉铭园社区B区（确诊）",
        "geometry": {
          "type": "Point",
          "coordinates": [
            116.426212,
            40.004212
          ]
        },
        "point": {
          "type": "Point",
          "coordinates": [
            116.426212,
            40.004212
          ]
        },
        "date": "2020-02-05"
      },
      {
        "name": "慈云寺北里（确诊）",
        "geometry": {
          "type": "Point",
          "coordinates": [
            116.495146,
            39.918334
          ]
        },
        "point": {
          "type": "Point",
          "coordinates": [
            116.495146,
            39.918334
          ]
        },
        "date": "2020-02-05"
      },
      {
        "name": "来广营乡筑华年（确诊）",
        "geometry": {
          "type": "Point",
          "coordinates": [
            116.427805,
            40.03593
          ]
        },
        "point": {
          "type": "Point",
          "coordinates": [
            116.427805,
            40.03593
          ]
        },
        "date": "2020-02-05"
      },
      {
        "name": "展览路街道南营房社区（确诊）",
        "geometry": {
          "type": "Point",
          "coordinates": [
            116.350777,
            39.919754
          ]
        },
        "point": {
          "type": "Point",
          "coordinates": [
            116.350777,
            39.919754
          ]
        },
        "date": "2020-02-05"
      },
      {
        "name": "复兴门外大街甲20号（确诊）",
        "geometry": {
          "type": "Point",
          "coordinates": [
            116.339985,
            39.905574
          ]
        },
        "point": {
          "type": "Point",
          "coordinates": [
            116.339985,
            39.905574
          ]
        },
        "date": "2020-02-05"
      },
      {
        "name": "体育馆街道驹章胡同（确诊）",
        "geometry": {
          "type": "Point",
          "coordinates": [
            116.426008,
            39.88813
          ]
        },
        "point": {
          "type": "Point",
          "coordinates": [
            116.426008,
            39.88813
          ]
        },
        "date": "2020-02-05"
      },
      {
        "name": "广源小区东区（疑似）",
        "geometry": {
          "type": "Polygon",
          "coordinates": [
            [
              [
                116.335169,
                39.892748
              ],
              [
                116.337235,
                39.892855
              ],
              [
                116.337277,
                39.891258
              ],
              [
                116.335207,
                39.891246
              ]
            ]
          ]
        },
        "point": {
          "type": "Point",
          "coordinates": [
            116.336226,
            39.892036
          ]
        },
        "date": "2020-02-01"
      },
      {
        "name": "朱雀门小区（疑似）",
        "geometry": {
          "type": "Polygon",
          "coordinates": [
            [
              [
                116.387711,
                39.879057
              ],
              [
                116.390361,
                39.879181
              ],
              [
                116.390554,
                39.875665
              ],
              [
                116.388022,
                39.875426
              ]
            ]
          ]
        },
        "point": {
          "type": "Point",
          "coordinates": [
            116.389105,
            39.877723
          ]
        },
        "date": "2020-02-01"
      },
      {
        "name": "牛街东里、西里（疑似）",
        "geometry": {
          "type": "Polygon",
          "coordinates": [
            [
              [
                116.367407,
                39.886236
              ],
              [
                116.36775,
                39.888237
              ],
              [
                116.361141,
                39.887874
              ],
              [
                116.361238,
                39.886541
              ]
            ]
          ]
        },
        "point": {
          "type": "Point",
          "coordinates": [
            116.363856,
            39.887529
          ]
        },
        "date": "2020-02-01"
      },
      {
        "name": "教子胡同（疑似）",
        "geometry": {
          "type": "Point",
          "coordinates": [
            116.367537,
            39.886418
          ]
        },
        "point": {
          "type": "Point",
          "coordinates": [
            116.367537,
            39.886418
          ]
        },
        "date": "2020-02-01"
      },
      {
        "name": "崇文门东大街6号楼（确诊）",
        "geometry": {
          "type": "Point",
          "coordinates": [
            116.430768,
            39.900373
          ]
        },
        "point": {
          "type": "Point",
          "coordinates": [
            116.430768,
            39.900373
          ]
        },
        "date": "2020-02-01"
      },
      {
        "name": "远见名苑2号楼（疑似）",
        "geometry": {
          "type": "Point",
          "coordinates": [
            116.338402,
            39.885061
          ]
        },
        "point": {
          "type": "Point",
          "coordinates": [
            116.338402,
            39.885061
          ]
        },
        "date": "2020-02-01"
      },
      {
        "name": "月坛北街8号（确诊）",
        "geometry": {
          "type": "Point",
          "coordinates": [
            116.350719,
            39.918154
          ]
        },
        "point": {
          "type": "Point",
          "coordinates": [
            116.350719,
            39.918154
          ]
        },
        "date": "2020-02-01"
      },
      {
        "name": "广安门15号院（疑似）",
        "geometry": {
          "type": "Point",
          "coordinates": [
            116.339625,
            39.879375
          ]
        },
        "point": {
          "type": "Point",
          "coordinates": [
            116.339625,
            39.879375
          ]
        },
        "date": "2020-02-01"
      },
      {
        "name": "北苑一号院（确诊）",
        "geometry": {
          "type": "Polygon",
          "coordinates": [
            [
              [
                116.424663,
                40.024425
              ],
              [
                116.430049,
                40.024416
              ],
              [
                116.430135,
                40.022354
              ],
              [
                116.425575,
                40.022436
              ],
              [
                116.425682,
                40.022987
              ],
              [
                116.424631,
                40.023036
              ]
            ]
          ]
        },
        "point": {
          "type": "Point",
          "coordinates": [
            116.427474,
            40.023488
          ]
        },
        "date": "2020-02-01"
      },
      {
        "name": "来广营广华居（疑似）",
        "geometry": {
          "type": "Point",
          "coordinates": [
            116.439418,
            40.033801
          ]
        },
        "point": {
          "type": "Point",
          "coordinates": [
            116.439418,
            40.033801
          ]
        },
        "date": "2020-02-01"
      },
      {
        "name": "观景园（确诊）",
        "geometry": {
          "type": "Polygon",
          "coordinates": [
            [
              [
                116.371362,
                40.03684
              ],
              [
                116.375718,
                40.037645
              ],
              [
                116.376823,
                40.03509
              ],
              [
                116.374763,
                40.034507
              ],
              [
                116.37486,
                40.033956
              ],
              [
                116.372285,
                40.033496
              ]
            ]
          ]
        },
        "point": {
          "type": "Point",
          "coordinates": [
            116.374345,
            40.035476
          ]
        },
        "date": "2020-02-01"
      },
      {
        "name": "百旺茉莉园（确诊）",
        "geometry": {
          "type": "Polygon",
          "coordinates": [
            [
              [
                116.248626,
                40.049898
              ],
              [
                116.257209,
                40.049882
              ],
              [
                116.257692,
                40.047508
              ],
              [
                116.25457,
                40.04626
              ],
              [
                116.248991,
                40.048034
              ]
            ]
          ]
        },
        "point": {
          "type": "Point",
          "coordinates": [
            116.252982,
            40.048486
          ]
        },
        "date": "2020-02-01"
      },
      {
        "name": "西二旗空研BD院（确诊）",
        "geometry": {
          "type": "Point",
          "coordinates": [
            116.321603,
            40.054879
          ]
        },
        "point": {
          "type": "Point",
          "coordinates": [
            116.321603,
            40.054879
          ]
        },
        "date": "2020-02-01"
      },
      {
        "name": "永定路52号院（确诊）",
        "geometry": {
          "type": "Polygon",
          "coordinates": [
            [
              [
                116.26806,
                39.910164
              ],
              [
                116.269272,
                39.910148
              ],
              [
                116.26924,
                39.912831
              ],
              [
                116.268381,
                39.912814
              ],
              [
                116.268403,
                39.911263
              ],
              [
                116.268065,
                39.911152
              ]
            ]
          ]
        },
        "point": {
          "type": "Point",
          "coordinates": [
            116.268757,
            39.911366
          ]
        },
        "date": "2020-02-01"
      },
      {
        "name": "农影小区（确诊）",
        "geometry": {
          "type": "Point",
          "coordinates": [
            116.323547,
            39.9625
          ]
        },
        "point": {
          "type": "Point",
          "coordinates": [
            116.323547,
            39.9625
          ]
        },
        "date": "2020-02-01"
      },
      {
        "name": "华腾园（确诊）",
        "geometry": {
          "type": "Point",
          "coordinates": [
            116.465157,
            39.887327
          ]
        },
        "point": {
          "type": "Point",
          "coordinates": [
            116.465157,
            39.887327
          ]
        },
        "date": "2020-02-01"
      },
      {
        "name": "林萃路10号院（确诊）",
        "geometry": {
          "type": "Polygon",
          "coordinates": [
            [
              [
                116.373477,
                40.010921
              ],
              [
                116.374749,
                40.010978
              ],
              [
                116.374818,
                40.010197
              ],
              [
                116.374641,
                40.00998
              ],
              [
                116.373579,
                40.009922
              ]
            ]
          ]
        },
        "point": {
          "type": "Point",
          "coordinates": [
            116.374196,
            40.010477
          ]
        },
        "date": "2020-02-01"
      },
      {
        "name": "澳林春天（确诊）",
        "geometry": {
          "type": "Point",
          "coordinates": [
            116.3738,
            40.01226
          ]
        },
        "point": {
          "type": "Point",
          "coordinates": [
            116.3738,
            40.01226
          ]
        },
        "date": "2020-02-04"
      },
      {
        "name": "中灿苑（确诊）",
        "geometry": {
          "type": "Point",
          "coordinates": [
            116.410158,
            40.007346
          ]
        },
        "point": {
          "type": "Point",
          "coordinates": [
            116.410158,
            40.007346
          ]
        },
        "date": "2020-02-04"
      },
      {
        "name": "怡锦园（确诊）",
        "geometry": {
          "type": "Point",
          "coordinates": [
            116.290355,
            39.833529
          ]
        },
        "point": {
          "type": "Point",
          "coordinates": [
            116.290355,
            39.833529
          ]
        },
        "date": "2020-02-04"
      },
      {
        "name": "万年花城（确诊）",
        "geometry": {
          "type": "Polygon",
          "coordinates": [
            [
              [
                116.320401,
                39.844335
              ],
              [
                116.323169,
                39.844343
              ],
              [
                116.32319,
                39.843874
              ],
              [
                116.321919,
                39.843264
              ],
              [
                116.321914,
                39.843268
              ],
              [
                116.321897,
                39.843103
              ],
              [
                116.320889,
                39.84307
              ],
              [
                116.320857,
                39.843445
              ],
              [
                116.320272,
                39.843458
              ]
            ]
          ]
        },
        "point": {
          "type": "Point",
          "coordinates": [
            116.32164,
            39.843816
          ]
        },
        "date": "2020-02-01"
      },
      {
        "name": "远洋自然（确诊）",
        "geometry": {
          "type": "Polygon",
          "coordinates": [
            [
              [
                116.388308,
                39.841959
              ],
              [
                116.391902,
                39.841761
              ],
              [
                116.391881,
                39.839726
              ],
              [
                116.388372,
                39.840179
              ]
            ]
          ]
        },
        "point": {
          "type": "Point",
          "coordinates": [
            116.390164,
            39.840929
          ]
        },
        "date": "2020-02-01"
      },
      {
        "name": "怡海花园（确诊）",
        "geometry": {
          "type": "Point",
          "coordinates": [
            116.301473,
            39.833917
          ]
        },
        "point": {
          "type": "Point",
          "coordinates": [
            116.301473,
            39.833917
          ]
        },
        "date": "2020-02-01"
      },
      {
        "name": "太平桥中里2号楼（确诊）",
        "geometry": {
          "type": "Point",
          "coordinates": [
            116.320416,
            39.887756
          ]
        },
        "point": {
          "type": "Point",
          "coordinates": [
            116.320416,
            39.887756
          ]
        },
        "date": "2020-02-01"
      },
      {
        "name": "嘉州水郡北区130号楼（确诊）",
        "geometry": {
          "type": "Point",
          "coordinates": [
            116.166649,
            39.771214
          ]
        },
        "point": {
          "type": "Point",
          "coordinates": [
            116.166649,
            39.771214
          ]
        },
        "date": "2020-02-04"
      },
      {
        "name": "恒大江湾7号楼（确诊）",
        "geometry": {
          "type": "Point",
          "coordinates": [
            116.531243,
            39.969588
          ]
        },
        "point": {
          "type": "Point",
          "coordinates": [
            116.531243,
            39.969588
          ]
        },
        "date": "2020-02-04"
      },
      {
        "name": "增产路地区（确诊）",
        "geometry": {
          "type": "Point",
          "coordinates": [
            116.094388,
            39.940691
          ]
        },
        "point": {
          "type": "Point",
          "coordinates": [
            116.094388,
            39.940691
          ]
        },
        "date": "2020-02-04"
      },
      {
        "name": "回龙观龙锦苑（确诊）",
        "geometry": {
          "type": "Point",
          "coordinates": [
            116.363478,
            40.08833
          ]
        },
        "point": {
          "type": "Point",
          "coordinates": [
            116.363478,
            40.08833
          ]
        },
        "date": "2020-02-04"
      },
      {
        "name": "天瑞嘉园（确诊）",
        "geometry": {
          "type": "Polygon",
          "coordinates": [
            [
              [
                116.208196,
                39.682285
              ],
              [
                116.208496,
                39.683309
              ],
              [
                116.20797,
                39.683432
              ],
              [
                116.208421,
                39.68491
              ],
              [
                116.203496,
                39.68572
              ],
              [
                116.203335,
                39.683234
              ]
            ]
          ]
        },
        "point": {
          "type": "Point",
          "coordinates": [
            116.205846,
            39.68406
          ]
        },
        "date": "2020-02-04"
      },
      {
        "name": "玉璟园（确诊）",
        "geometry": {
          "type": "Polygon",
          "coordinates": [
            [
              [
                116.453376,
                39.765624
              ],
              [
                116.456187,
                39.765764
              ],
              [
                116.456519,
                39.764127
              ],
              [
                116.456074,
                39.764098
              ],
              [
                116.456112,
                39.763694
              ],
              [
                116.45395,
                39.763735
              ]
            ]
          ]
        },
        "point": {
          "type": "Point",
          "coordinates": [
            116.454996,
            39.764754
          ]
        },
        "date": "2020-02-04"
      }
    ]
  },
  {
    "name": "天津市",
    "center": {
      "type": "Point",
      "coordinates": [
        117.201538,
        39.085294
      ]
    },
    "updated_at": "2020/02/01 08:50:48",
    "pois": [
      {
        "name": "宁河区王北村（确诊）",
        "geometry": {
          "type": "Point",
          "coordinates": [
            117.772053,
            39.358864
          ]
        },
        "point": {
          "type": "Point",
          "coordinates": [
            117.772053,
            39.358864
          ]
        },
        "date": "2020-02-01"
      },
      {
        "name": "宁河区运河家园（确诊）",
        "geometry": {
          "type": "Polygon",
          "coordinates": [
            [
              [
                117.798526,
                39.35245
              ],
              [
                117.801186,
                39.354076
              ],
              [
                117.805156,
                39.350027
              ],
              [
                117.800693,
                39.349546
              ]
            ]
          ]
        },
        "point": {
          "type": "Point",
          "coordinates": [
            117.80168,
            39.351504
          ]
        },
        "date": "2020-02-01"
      },
      {
        "name": "宝坻区华苑东区（确诊）",
        "geometry": {
          "type": "Point",
          "coordinates": [
            117.30585,
            39.71052
          ]
        },
        "point": {
          "type": "Point",
          "coordinates": [
            117.30585,
            39.71052
          ]
        },
        "date": "2020-02-01"
      },
      {
        "name": "牛道口镇沟头村（确诊）",
        "geometry": {
          "type": "Point",
          "coordinates": [
            117.203611,
            39.81317
          ]
        },
        "point": {
          "type": "Point",
          "coordinates": [
            117.203611,
            39.81317
          ]
        },
        "date": "2020-02-05"
      },
      {
        "name": "海滨街道蓝水湾小区（确诊）",
        "geometry": {
          "type": "Point",
          "coordinates": [
            117.304198,
            39.737956
          ]
        },
        "point": {
          "type": "Point",
          "coordinates": [
            117.304198,
            39.737956
          ]
        },
        "date": "2020-02-03"
      },
      {
        "name": "海滨街道御景华城（确诊）",
        "geometry": {
          "type": "Point",
          "coordinates": [
            117.35074,
            39.73917
          ]
        },
        "point": {
          "type": "Point",
          "coordinates": [
            117.35074,
            39.73917
          ]
        },
        "date": "2020-02-04"
      },
      {
        "name": "宝平街道宝境檀香小区（确诊）",
        "geometry": {
          "type": "Point",
          "coordinates": [
            117.297667,
            39.717968
          ]
        },
        "point": {
          "type": "Point",
          "coordinates": [
            117.297667,
            39.717968
          ]
        },
        "date": "2020-02-05"
      },
      {
        "name": "宝坻区宝平景苑东、西区（确诊）",
        "geometry": {
          "type": "Polygon",
          "coordinates": [
            [
              [
                117.288905,
                39.711273
              ],
              [
                117.293669,
                39.711026
              ],
              [
                117.29354,
                39.708665
              ],
              [
                117.297081,
                39.708302
              ],
              [
                117.296866,
                39.706552
              ],
              [
                117.288154,
                39.707146
              ]
            ]
          ]
        },
        "point": {
          "type": "Point",
          "coordinates": [
            117.292961,
            39.708764
          ]
        },
        "date": "2020-02-01"
      },
      {
        "name": "宝坻区河景馨园（确诊）",
        "geometry": {
          "type": "Point",
          "coordinates": [
            117.289306,
            39.701867
          ]
        },
        "point": {
          "type": "Point",
          "coordinates": [
            117.289306,
            39.701867
          ]
        },
        "date": "2020-02-01"
      },
      {
        "name": "宝坻区开元新居（确诊）",
        "geometry": {
          "type": "Point",
          "coordinates": [
            117.298999,
            39.733548
          ]
        },
        "point": {
          "type": "Point",
          "coordinates": [
            117.298999,
            39.733548
          ]
        },
        "date": "2020-02-01"
      },
      {
        "name": "宝坻区宝鑫景苑（确诊）",
        "geometry": {
          "type": "Point",
          "coordinates": [
            117.323769,
            39.735339
          ]
        },
        "point": {
          "type": "Point",
          "coordinates": [
            117.323769,
            39.735339
          ]
        },
        "date": "2020-02-01"
      },
      {
        "name": "宝坻区御景华城（确诊）",
        "geometry": {
          "type": "Point",
          "coordinates": [
            117.350119,
            39.737929
          ]
        },
        "point": {
          "type": "Point",
          "coordinates": [
            117.350119,
            39.737929
          ]
        },
        "date": "2020-02-01"
      },
      {
        "name": "宝坻区焦山寺村（确诊）",
        "geometry": {
          "type": "Point",
          "coordinates": [
            117.28129,
            39.779686
          ]
        },
        "point": {
          "type": "Point",
          "coordinates": [
            117.28129,
            39.779686
          ]
        },
        "date": "2020-02-01"
      },
      {
        "name": "宝坻区凯瑞国际小区（确诊）",
        "geometry": {
          "type": "Point",
          "coordinates": [
            117.336474,
            39.723154
          ]
        },
        "point": {
          "type": "Point",
          "coordinates": [
            117.336474,
            39.723154
          ]
        },
        "date": "2020-02-01"
      },
      {
        "name": "宝坻区古庄村（确诊）",
        "geometry": {
          "type": "Point",
          "coordinates": [
            117.259814,
            39.590953
          ]
        },
        "point": {
          "type": "Point",
          "coordinates": [
            117.259814,
            39.590953
          ]
        },
        "date": "2020-02-02"
      },
      {
        "name": "宝坻区大钟庄村（确诊）",
        "geometry": {
          "type": "Point",
          "coordinates": [
            117.577378,
            39.687394
          ]
        },
        "point": {
          "type": "Point",
          "coordinates": [
            117.577378,
            39.687394
          ]
        },
        "date": "2020-02-02"
      },
      {
        "name": "滨海新区万通上北新新家园（确诊）",
        "geometry": {
          "type": "Point",
          "coordinates": [
            117.645761,
            39.062401
          ]
        },
        "point": {
          "type": "Point",
          "coordinates": [
            117.645761,
            39.062401
          ]
        },
        "date": "2020-02-05"
      },
      {
        "name": "滨海新区中新生态城（确诊）",
        "geometry": {
          "type": "Point",
          "coordinates": [
            117.74044,
            39.125217
          ]
        },
        "point": {
          "type": "Point",
          "coordinates": [
            117.74044,
            39.125217
          ]
        },
        "date": "2020-02-01"
      },
      {
        "name": "东丽区揽湖苑别墅（确诊）",
        "geometry": {
          "type": "Point",
          "coordinates": [
            117.502647,
            39.174884
          ]
        },
        "point": {
          "type": "Point",
          "coordinates": [
            117.502647,
            39.174884
          ]
        },
        "date": "2020-02-01"
      },
      {
        "name": "西青区杨柳青镇（确诊）",
        "geometry": {
          "type": "Point",
          "coordinates": [
            117.015214,
            39.128392
          ]
        },
        "point": {
          "type": "Point",
          "coordinates": [
            117.015214,
            39.128392
          ]
        },
        "date": "2020-02-01"
      }
    ]
  },
  {
    "name": "上海市",
    "province": "上海市",
    "center": {
      "type": "Point",
      "coordinates": [
        121.4739998247011,
        31.230000555238348
      ]
    },
    "updated_at": "2020/02/07 16:06:18",
    "pois": [
      {
        "name": "连亮路111弄",
        "geometry": {
          "type": "Point",
          "coordinates": [
            121.389161,
            31.290821
          ]
        },
        "point": {
          "type": "Point",
          "coordinates": [
            121.389161,
            31.290821
          ]
        },
        "date": "2020-02-07"
      },
      {
        "name": "阳光花城",
        "geometry": {
          "type": "Polygon",
          "coordinates": [
            [
              [
                121.62104599999807,
                31.20948099999637
              ],
              [
                121.62242399999761,
                31.210067999995708
              ],
              [
                121.62278099999749,
                31.21026499999553
              ],
              [
                121.62359199999719,
                31.210871999995103
              ],
              [
                121.62361199999717,
                31.21087799999509
              ],
              [
                121.62363199999716,
                31.21087799999508
              ],
              [
                121.62463599999674,
                31.21090799999452
              ],
              [
                121.62465499999675,
                31.210893999994507
              ],
              [
                121.62466099999675,
                31.210867999994505
              ],
              [
                121.62465999999675,
                31.20787899999449
              ],
              [
                121.62469499999673,
                31.206824999994467
              ],
              [
                121.62468399999673,
                31.206792999994473
              ],
              [
                121.62464699999674,
                31.206786999994492
              ],
              [
                121.62372499999712,
                31.206743999995012
              ],
              [
                121.62201499999776,
                31.2066669999959
              ],
              [
                121.62198799999777,
                31.206671999995912
              ],
              [
                121.62196999999777,
                31.20667999999592
              ],
              [
                121.62140999999797,
                31.20727499999619
              ],
              [
                121.62121799999801,
                31.207472999996284
              ],
              [
                121.62117999999802,
                31.2075049999963
              ],
              [
                121.62106599999807,
                31.20754899999635
              ],
              [
                121.6209649999981,
                31.2075679999964
              ],
              [
                121.62095099999812,
                31.207581999996403
              ],
              [
                121.6209559999981,
                31.207604999996406
              ],
              [
                121.62121999999802,
                31.208149999996284
              ],
              [
                121.62121299999802,
                31.20854099999629
              ],
              [
                121.62101199999807,
                31.209432999996384
              ],
              [
                121.62102399999809,
                31.20946199999638
              ],
              [
                121.62104599999807,
                31.20948099999637
              ],
              [
                121.62104599999807,
                31.20948099999637
              ]
            ]
          ]
        },
        "point": {
          "type": "Point",
          "coordinates": [
            121.62306554017673,
            31.208605705697842
          ]
        },
        "date": "2020-02-07"
      },
      {
        "name": "民乐城兰丽苑",
        "geometry": {
          "type": "Polygon",
          "coordinates": [
            [
              [
                121.74321100005804,
                31.071657000269933
              ],
              [
                121.74557599997632,
                31.072009999877388
              ],
              [
                121.74560799997586,
                31.07188999987252
              ],
              [
                121.74561099997565,
                31.070515999871063
              ],
              [
                121.74552499997692,
                31.0704499998839
              ],
              [
                121.744856999991,
                31.070257999987373
              ],
              [
                121.74440100000496,
                31.070170000061623
              ],
              [
                121.74393700002277,
                31.07012700014017
              ],
              [
                121.74350600004253,
                31.070108000215797
              ],
              [
                121.74321100005804,
                31.071657000269933
              ],
              [
                121.74321100005804,
                31.071657000269933
              ]
            ]
          ]
        },
        "point": {
          "type": "Point",
          "coordinates": [
            121.74447682187966,
            31.07105157181982
          ]
        },
        "date": "2020-02-07"
      },
      {
        "name": "金京路地铁站",
        "geometry": {
          "type": "Point",
          "coordinates": [
            121.61672999999914,
            31.280109999998217
          ]
        },
        "point": {
          "type": "Point",
          "coordinates": [
            121.61672999999914,
            31.280109999998217
          ]
        },
        "date": "2020-02-07"
      },
      {
        "name": "新高苑",
        "geometry": {
          "type": "Point",
          "coordinates": [
            121.62071799999816,
            31.29174099999683
          ]
        },
        "point": {
          "type": "Point",
          "coordinates": [
            121.62071799999816,
            31.29174099999683
          ]
        },
        "date": "2020-02-07"
      },
      {
        "name": "定海路街道宁武路218弄",
        "geometry": {
          "type": "Point",
          "coordinates": [
            121.54544000009597,
            31.2678620000694
          ]
        },
        "point": {
          "type": "Point",
          "coordinates": [
            121.54544000009597,
            31.2678620000694
          ]
        },
        "date": "2020-02-07"
      },
      {
        "name": "安吉斯铭东安汽车销售服务有限公司",
        "geometry": {
          "type": "Polygon",
          "coordinates": [
            [
              [
                121.45356800006222,
                31.193097000044528
              ],
              [
                121.45455300006554,
                31.193291000047015
              ],
              [
                121.45462900006581,
                31.192976000047206
              ],
              [
                121.45366700006254,
                31.19278600004477
              ],
              [
                121.45356800006222,
                31.193097000044528
              ],
              [
                121.45356800006222,
                31.193097000044528
              ]
            ]
          ]
        },
        "point": {
          "type": "Point",
          "coordinates": [
            121.45410395178664,
            31.193038090648294
          ]
        },
        "date": "2020-02-07"
      },
      {
        "name": "枫林路街道东安二村",
        "geometry": {
          "type": "Polygon",
          "coordinates": [
            [
              [
                121.45260100005902,
                31.18763900004208
              ],
              [
                121.4531420000608,
                31.187831000043406
              ],
              [
                121.45315400006082,
                31.18784300004344
              ],
              [
                121.45315600006084,
                31.18785500004344
              ],
              [
                121.4530880000606,
                31.18804000004328
              ],
              [
                121.4530310000604,
                31.188192000043138
              ],
              [
                121.45302100006039,
                31.188220000043113
              ],
              [
                121.45303200006042,
                31.188245000043143
              ],
              [
                121.45306300006054,
                31.18826400004322
              ],
              [
                121.45322100006105,
                31.18832400004361
              ],
              [
                121.45322200006105,
                31.188339000043612
              ],
              [
                121.45322000006105,
                31.188356000043605
              ],
              [
                121.45316600006086,
                31.188472000043475
              ],
              [
                121.45315800006085,
                31.188503000043458
              ],
              [
                121.45317000006088,
                31.188525000043484
              ],
              [
                121.45318300006092,
                31.18853400004352
              ],
              [
                121.4541310000641,
                31.18881000004589
              ],
              [
                121.45417800006426,
                31.188840000046007
              ],
              [
                121.45418100006427,
                31.18889000004602
              ],
              [
                121.45387800006326,
                31.18997800004527
              ],
              [
                121.45386600006321,
                31.19002100004524
              ],
              [
                121.45387600006323,
                31.190034000045262
              ],
              [
                121.45388600006326,
                31.190044000045287
              ],
              [
                121.45390800006335,
                31.190051000045344
              ],
              [
                121.45435300006486,
                31.19017300004647
              ],
              [
                121.45497400006698,
                31.19034400004806
              ],
              [
                121.45502200006715,
                31.190351000048185
              ],
              [
                121.45506100006727,
                31.190328000048286
              ],
              [
                121.45507400006731,
                31.190304000048318
              ],
              [
                121.45532000006817,
                31.189648000048944
              ],
              [
                121.45602400007061,
                31.187698000050762
              ],
              [
                121.45620300007124,
                31.187184000051225
              ],
              [
                121.45620600007125,
                31.187143000051233
              ],
              [
                121.4561900000712,
                31.187108000051186
              ],
              [
                121.45591500007023,
                31.187023000050466
              ],
              [
                121.4558750000701,
                31.18701300005036
              ],
              [
                121.45585300007002,
                31.187016000050303
              ],
              [
                121.45584200006998,
                31.18702300005027
              ],
              [
                121.45581700006989,
                31.18707500005021
              ],
              [
                121.4557640000697,
                31.18720200005007
              ],
              [
                121.45574900006964,
                31.187216000050032
              ],
              [
                121.4557050000695,
                31.187214000049917
              ],
              [
                121.45522700006784,
                31.187080000048674
              ],
              [
                121.45519800006772,
                31.187082000048598
              ],
              [
                121.45517300006766,
                31.187090000048535
              ],
              [
                121.45514600006756,
                31.187116000048462
              ],
              [
                121.45506600006729,
                31.18735300004826
              ],
              [
                121.45502800006716,
                31.187468000048163
              ],
              [
                121.45501400006711,
                31.187488000048127
              ],
              [
                121.454982000067,
                31.187501000048048
              ],
              [
                121.4549520000669,
                31.18749800004797
              ],
              [
                121.45410700006401,
                31.187322000045814
              ],
              [
                121.45407800006392,
                31.187305000045736
              ],
              [
                121.45405300006384,
                31.187276000045674
              ],
              [
                121.45405000006382,
                31.18720500004567
              ],
              [
                121.45405900006385,
                31.187047000045688
              ],
              [
                121.45408200006393,
                31.186951000045745
              ],
              [
                121.454102000064,
                31.186919000045794
              ],
              [
                121.45414400006413,
                31.186896000045902
              ],
              [
                121.4541950000643,
                31.186874000046032
              ],
              [
                121.45420800006436,
                31.186855000046062
              ],
              [
                121.45422800006442,
                31.18679800004611
              ],
              [
                121.45423800006446,
                31.186768000046136
              ],
              [
                121.45422900006443,
                31.186728000046113
              ],
              [
                121.45419800006432,
                31.186709000046037
              ],
              [
                121.45355600006216,
                31.18655300004442
              ],
              [
                121.45297800006024,
                31.186410000042986
              ],
              [
                121.45289600005997,
                31.186388000042786
              ],
              [
                121.45286900005988,
                31.18638200004272
              ],
              [
                121.45283300005977,
                31.18639600004263
              ],
              [
                121.45277300005957,
                31.186541000042485
              ],
              [
                121.45276600005954,
                31.18656500004247
              ],
              [
                121.45276900005956,
                31.18659300004248
              ],
              [
                121.45278800005961,
                31.186620000042527
              ],
              [
                121.45282100005973,
                31.186636000042608
              ],
              [
                121.45283000005976,
                31.186655000042624
              ],
              [
                121.45282600005974,
                31.18668600004262
              ],
              [
                121.45281200005968,
                31.186740000042587
              ],
              [
                121.45279800005964,
                31.18676400004255
              ],
              [
                121.45277800005958,
                31.186772000042502
              ],
              [
                121.45276000005951,
                31.18677500004246
              ],
              [
                121.45273600005946,
                31.1867680000424
              ],
              [
                121.45255400005885,
                31.186705000041954
              ],
              [
                121.45253400005879,
                31.186698000041908
              ],
              [
                121.45251000005871,
                31.18670300004185
              ],
              [
                121.45247400005859,
                31.18678000004176
              ],
              [
                121.45246200005855,
                31.18678800004173
              ],
              [
                121.4524420000585,
                31.186789000041685
              ],
              [
                121.45239800005835,
                31.186784000041577
              ],
              [
                121.45234700005818,
                31.186791000041456
              ],
              [
                121.45233500005814,
                31.18680200004143
              ],
              [
                121.45230900005807,
                31.18682900004136
              ],
              [
                121.45229900005802,
                31.186858000041337
              ],
              [
                121.45222600005778,
                31.187101000041164
              ],
              [
                121.45223800005782,
                31.187122000041196
              ],
              [
                121.45227800005796,
                31.18715100004129
              ],
              [
                121.45268600005929,
                31.18729600004228
              ],
              [
                121.45271200005938,
                31.18731000004235
              ],
              [
                121.45271800005939,
                31.187325000042364
              ],
              [
                121.45271600005938,
                31.187347000042358
              ],
              [
                121.45266700005924,
                31.187468000042237
              ],
              [
                121.45259600005899,
                31.187599000042066
              ],
              [
                121.452594000059,
                31.187624000042064
              ],
              [
                121.45260100005902,
                31.18763900004208
              ],
              [
                121.45260100005902,
                31.18763900004208
              ]
            ]
          ]
        },
        "point": {
          "type": "Point",
          "coordinates": [
            121.4543540415341,
            31.188174231397984
          ]
        },
        "date": "2020-02-07"
      },
      {
        "name": "惠南镇锦江之星宾馆",
        "geometry": {
          "type": "Point",
          "coordinates": [
            121.76319800000176,
            31.05057300000107
          ]
        },
        "point": {
          "type": "Point",
          "coordinates": [
            121.76319800000176,
            31.05057300000107
          ]
        },
        "date": "2020-02-07"
      },
      {
        "name": "陕西南路地铁站",
        "geometry": {
          "type": "Point",
          "coordinates": [
            121.45982800008444,
            31.21726700006158
          ]
        },
        "point": {
          "type": "Point",
          "coordinates": [
            121.45982800008444,
            31.21726700006158
          ]
        },
        "date": "2020-02-07"
      },
      {
        "name": "虹桥街道虹桥路1024弄",
        "geometry": {
          "type": "Point",
          "coordinates": [
            121.41902800000136,
            31.195602000001085
          ]
        },
        "point": {
          "type": "Point",
          "coordinates": [
            121.41902800000136,
            31.195602000001085
          ]
        },
        "date": "2020-02-07"
      },
      {
        "name": "南行贤苑",
        "geometry": {
          "type": "Polygon",
          "coordinates": [
            [
              [
                121.51605800018858,
                30.963269000137046
              ],
              [
                121.51554000018955,
                30.963224000137803
              ],
              [
                121.51535400018987,
                30.963250000138064
              ],
              [
                121.5152330001901,
                30.96351900013824
              ],
              [
                121.51520000019015,
                30.964031000138288
              ],
              [
                121.51337100019317,
                30.963908000140652
              ],
              [
                121.51368100019268,
                30.96118400014026
              ],
              [
                121.51647500018774,
                30.96143700013641
              ],
              [
                121.51605800018858,
                30.963269000137046
              ],
              [
                121.51605800018858,
                30.963269000137046
              ]
            ]
          ]
        },
        "point": {
          "type": "Point",
          "coordinates": [
            121.51478186853876,
            30.962534540618467
          ]
        },
        "date": "2020-02-07"
      },
      {
        "name": "新桥镇华兴小区",
        "geometry": {
          "type": "Polygon",
          "coordinates": [
            [
              [
                121.3389299999459,
                31.07377899994287
              ],
              [
                121.33964799994627,
                31.07222199994321
              ],
              [
                121.33404699994428,
                31.07015999994134
              ],
              [
                121.3333819999442,
                31.06989299994125
              ],
              [
                121.33331199994419,
                31.06999499994124
              ],
              [
                121.3326979999441,
                31.0711699999412
              ],
              [
                121.3389299999459,
                31.07377899994287
              ],
              [
                121.3389299999459,
                31.07377899994287
              ]
            ]
          ]
        },
        "point": {
          "type": "Point",
          "coordinates": [
            121.33625430976942,
            31.071808116663846
          ]
        },
        "date": "2020-02-07"
      },
      {
        "name": "北蔡芳草路欧唛克KTV",
        "geometry": {
          "type": "Point",
          "coordinates": [
            121.55652800005745,
            31.19334400003941
          ]
        },
        "point": {
          "type": "Point",
          "coordinates": [
            121.55652800005745,
            31.19334400003941
          ]
        },
        "date": "2020-02-07"
      },
      {
        "name": "江桥镇金园一路1118弄",
        "geometry": {
          "type": "Point",
          "coordinates": [
            121.315051,
            31.248855
          ]
        },
        "point": {
          "type": "Point",
          "coordinates": [
            121.315051,
            31.248855
          ]
        },
        "date": "2020-02-07"
      },
      {
        "name": "首创旭辉城",
        "geometry": {
          "type": "Polygon",
          "coordinates": [
            [
              [
                121.199378,
                31.411163
              ],
              [
                121.198724,
                31.412036
              ],
              [
                121.197907,
                31.411575
              ],
              [
                121.198569,
                31.410785
              ],
              [
                121.1976,
                31.410235
              ],
              [
                121.195982,
                31.412391
              ],
              [
                121.197911,
                31.4136
              ],
              [
                121.199351,
                31.414488
              ],
              [
                121.200378,
                31.415083
              ],
              [
                121.202213,
                31.412783
              ],
              [
                121.200317,
                31.411684
              ],
              [
                121.199378,
                31.411163
              ],
              [
                121.199378,
                31.411163
              ]
            ]
          ]
        },
        "point": {
          "type": "Point",
          "coordinates": [
            121.19911255773233,
            31.41272499809974
          ]
        },
        "date": "2020-02-07"
      },
      {
        "name": "海尚菊苑",
        "geometry": {
          "type": "Point",
          "coordinates": [
            121.367724,
            31.353951
          ]
        },
        "point": {
          "type": "Point",
          "coordinates": [
            121.367724,
            31.353951
          ]
        },
        "date": "2020-02-07"
      },
      {
        "name": "采菊苑",
        "geometry": {
          "type": "Polygon",
          "coordinates": [
            [
              [
                121.363885,
                31.349814
              ],
              [
                121.366301,
                31.350733
              ],
              [
                121.368428,
                31.350291
              ],
              [
                121.369248,
                31.349244
              ],
              [
                121.367565,
                31.348448
              ],
              [
                121.366781,
                31.348041
              ],
              [
                121.366359,
                31.347851
              ],
              [
                121.365768,
                31.347612
              ],
              [
                121.365411,
                31.347472
              ],
              [
                121.364627,
                31.348602
              ],
              [
                121.363885,
                31.349814
              ],
              [
                121.363885,
                31.349814
              ]
            ]
          ]
        },
        "point": {
          "type": "Point",
          "coordinates": [
            121.36643948525776,
            31.349289427754773
          ]
        },
        "date": "2020-02-07"
      },
      {
        "name": "沃天百联生活超市(新桥店)",
        "geometry": {
          "type": "Point",
          "coordinates": [
            121.31974,
            31.064071
          ]
        },
        "point": {
          "type": "Point",
          "coordinates": [
            121.31974,
            31.064071
          ]
        },
        "date": "2020-02-07"
      },
      {
        "name": "虹桥火车站",
        "geometry": {
          "type": "Polygon",
          "coordinates": [
            [
              [
                121.318531,
                31.193235
              ],
              [
                121.318511,
                31.194493
              ],
              [
                121.318488,
                31.195709
              ],
              [
                121.317046,
                31.195516
              ],
              [
                121.316905,
                31.196612
              ],
              [
                121.322089,
                31.196787
              ],
              [
                121.322179,
                31.196088
              ],
              [
                121.322722,
                31.196128
              ],
              [
                121.322913,
                31.19328
              ],
              [
                121.322662,
                31.193276
              ],
              [
                121.322749,
                31.191646
              ],
              [
                121.317126,
                31.191342
              ],
              [
                121.317057,
                31.193196
              ],
              [
                121.318531,
                31.193235
              ],
              [
                121.318531,
                31.193235
              ]
            ]
          ]
        },
        "point": {
          "type": "Point",
          "coordinates": [
            121.32014417264327,
            31.194038159558573
          ]
        },
        "date": "2020-02-07"
      }
    ]
  }
]
