[
  {
    "name": "北京市",
    "center": {
      "type": "Point",
      "coordinates": [
        116.397551,
        39.906947
      ]
    },
    "updated_at": "2020/02/10 17:07:48",
    "pois": [
      {
        "name": "知春路82号院小区",
        "geometry": {
          "type": "Point",
          "coordinates": [
            116.330436,
            39.97372
          ]
        },
        "point": {
          "type": "Point",
          "coordinates": [
            116.330436,
            39.97372
          ]
        },
        "date": "2020-02-09"
      },
      {
        "name": "新村街道刘孟家园小区",
        "geometry": {
          "type": "Point",
          "coordinates": [
            116.302465,
            39.838112
          ]
        },
        "point": {
          "type": "Point",
          "coordinates": [
            116.302465,
            39.838112
          ]
        },
        "date": "2020-02-09"
      },
      {
        "name": "花乡街道幸福家园小区东区",
        "geometry": {
          "type": "Point",
          "coordinates": [
            116.310473,
            39.818101
          ]
        },
        "point": {
          "type": "Point",
          "coordinates": [
            116.310473,
            39.818101
          ]
        },
        "date": "2020-02-09"
      },
      {
        "name": "夏家园大通澜石6号楼",
        "geometry": {
          "type": "Point",
          "coordinates": [
            116.446979,
            39.970636
          ]
        },
        "point": {
          "type": "Point",
          "coordinates": [
            116.446979,
            39.970636
          ]
        },
        "date": "2020-02-09"
      },
      {
        "name": "瑞海家园二区",
        "geometry": {
          "type": "Point",
          "coordinates": [
            116.331716,
            39.786495
          ]
        },
        "point": {
          "type": "Point",
          "coordinates": [
            116.331716,
            39.786495
          ]
        },
        "date": "2020-02-09"
      },
      {
        "name": "胜利街道义宾南区",
        "geometry": {
          "type": "Point",
          "coordinates": [
            116.650675,
            40.13129
          ]
        },
        "point": {
          "type": "Point",
          "coordinates": [
            116.650675,
            40.13129
          ]
        },
        "date": "2020-02-09"
      },
      {
        "name": "万源南里小区",
        "geometry": {
          "type": "Point",
          "coordinates": [
            116.425794,
            39.797392
          ]
        },
        "point": {
          "type": "Point",
          "coordinates": [
            116.425794,
            39.797392
          ]
        },
        "date": "2020-02-09"
      },
      {
        "name": "中科院东南小区",
        "geometry": {
          "type": "Point",
          "coordinates": [
            116.323502,
            39.979102
          ]
        },
        "point": {
          "type": "Point",
          "coordinates": [
            116.323502,
            39.979102
          ]
        },
        "date": "2020-02-09"
      },
      {
        "name": "北京师范大学小区",
        "geometry": {
          "type": "Point",
          "coordinates": [
            116.362981,
            39.965078
          ]
        },
        "point": {
          "type": "Point",
          "coordinates": [
            116.362981,
            39.965078
          ]
        },
        "date": "2020-02-09"
      },
      {
        "name": "世纪东方嘉园",
        "geometry": {
          "type": "Point",
          "coordinates": [
            116.495694,
            39.87271
          ]
        },
        "point": {
          "type": "Point",
          "coordinates": [
            116.495694,
            39.87271
          ]
        },
        "date": "2020-02-09"
      },
      {
        "name": "东直门北小街8号",
        "geometry": {
          "type": "Point",
          "coordinates": [
            116.426286,
            39.947715
          ]
        },
        "point": {
          "type": "Point",
          "coordinates": [
            116.426286,
            39.947715
          ]
        },
        "date": "2020-02-09"
      },
      {
        "name": "香厂路东段",
        "geometry": {
          "type": "Point",
          "coordinates": [
            116.391568,
            39.887887
          ]
        },
        "point": {
          "type": "Point",
          "coordinates": [
            116.391568,
            39.887887
          ]
        },
        "date": "2020-02-01"
      },
      {
        "name": "海淀区芳清园",
        "geometry": {
          "type": "Point",
          "coordinates": [
            116.374062,
            40.032627
          ]
        },
        "point": {
          "type": "Point",
          "coordinates": [
            116.374062,
            40.032627
          ]
        },
        "date": "2020-01-22"
      },
      {
        "name": "复兴路乙6号",
        "geometry": {
          "type": "Point",
          "coordinates": [
            116.329389,
            39.90582
          ]
        },
        "point": {
          "type": "Point",
          "coordinates": [
            116.329389,
            39.90582
          ]
        },
        "date": "2020-02-07"
      },
      {
        "name": "密云区十里堡镇河槽村（确诊）",
        "geometry": {
          "type": "Point",
          "coordinates": [
            116.794089,
            40.343221
          ]
        },
        "point": {
          "type": "Point",
          "coordinates": [
            116.794089,
            40.343221
          ]
        },
        "date": "2020-02-07"
      },
      {
        "name": "房山区张坊镇西白岱村（确诊）",
        "geometry": {
          "type": "Point",
          "coordinates": [
            115.733025,
            39.580962
          ]
        },
        "point": {
          "type": "Point",
          "coordinates": [
            115.733025,
            39.580962
          ]
        },
        "date": "2020-02-07"
      },
      {
        "name": "新村街道富丰园（确诊）",
        "geometry": {
          "type": "Point",
          "coordinates": [
            116.28277,
            39.837041
          ]
        },
        "point": {
          "type": "Point",
          "coordinates": [
            116.28277,
            39.837041
          ]
        },
        "date": "2020-02-07"
      },
      {
        "name": "定安东里（确诊）",
        "geometry": {
          "type": "Point",
          "coordinates": [
            116.41465,
            39.859323
          ]
        },
        "point": {
          "type": "Point",
          "coordinates": [
            116.41465,
            39.859323
          ]
        },
        "date": "2020-02-07"
      },
      {
        "name": "建国街一里（确诊）",
        "geometry": {
          "type": "Point",
          "coordinates": [
            116.292753,
            39.847418
          ]
        },
        "point": {
          "type": "Point",
          "coordinates": [
            116.292753,
            39.847418
          ]
        },
        "date": "2020-02-07"
      },
      {
        "name": "田村路玉海园二里小区（确诊）",
        "geometry": {
          "type": "Point",
          "coordinates": [
            116.253621,
            39.920037
          ]
        },
        "point": {
          "type": "Point",
          "coordinates": [
            116.253621,
            39.920037
          ]
        },
        "date": "2020-02-07"
      },
      {
        "name": "将台乡芳园里小区（确诊）",
        "geometry": {
          "type": "Point",
          "coordinates": [
            116.486259,
            39.972198
          ]
        },
        "point": {
          "type": "Point",
          "coordinates": [
            116.486259,
            39.972198
          ]
        },
        "date": "2020-02-07"
      },
      {
        "name": "高碑店北花园社区超级蜂巢（确诊）",
        "geometry": {
          "type": "Point",
          "coordinates": [
            116.548731,
            39.899041
          ]
        },
        "point": {
          "type": "Point",
          "coordinates": [
            116.548731,
            39.899041
          ]
        },
        "date": "2020-02-05"
      },
      {
        "name": "北新桥街道后永康2巷（确诊）",
        "geometry": {
          "type": "Point",
          "coordinates": [
            116.422616,
            39.945158
          ]
        },
        "point": {
          "type": "Point",
          "coordinates": [
            116.422616,
            39.945158
          ]
        },
        "date": "2020-02-07"
      },
      {
        "name": "梨园当代名筑家园",
        "geometry": {
          "type": "Point",
          "coordinates": [
            116.665124,
            39.889574
          ]
        },
        "point": {
          "type": "Point",
          "coordinates": [
            116.665124,
            39.889574
          ]
        },
        "date": "2020-02-06"
      },
      {
        "name": "宋庄小堡村西街",
        "geometry": {
          "type": "Point",
          "coordinates": [
            116.714725,
            39.948352
          ]
        },
        "point": {
          "type": "Point",
          "coordinates": [
            116.714725,
            39.948352
          ]
        },
        "date": "2020-02-06"
      },
      {
        "name": "惠兰美居",
        "geometry": {
          "type": "Point",
          "coordinates": [
            116.677037,
            39.943649
          ]
        },
        "point": {
          "type": "Point",
          "coordinates": [
            116.677037,
            39.943649
          ]
        },
        "date": "2020-02-06"
      },
      {
        "name": "玉桥东里小区",
        "geometry": {
          "type": "Point",
          "coordinates": [
            116.691493,
            39.886392
          ]
        },
        "point": {
          "type": "Point",
          "coordinates": [
            116.691493,
            39.886392
          ]
        },
        "date": "2020-02-06"
      },
      {
        "name": "苹果园一区",
        "geometry": {
          "type": "Point",
          "coordinates": [
            116.192225,
            39.930763
          ]
        },
        "point": {
          "type": "Point",
          "coordinates": [
            116.192225,
            39.930763
          ]
        },
        "date": "2020-02-06"
      },
      {
        "name": "方庄芳星园",
        "geometry": {
          "type": "Point",
          "coordinates": [
            116.435587,
            39.861633
          ]
        },
        "point": {
          "type": "Point",
          "coordinates": [
            116.435587,
            39.861633
          ]
        },
        "date": "2020-02-06"
      },
      {
        "name": "望京西园一区",
        "geometry": {
          "type": "Point",
          "coordinates": [
            116.475916,
            40.00449
          ]
        },
        "point": {
          "type": "Point",
          "coordinates": [
            116.475916,
            40.00449
          ]
        },
        "date": "2020-02-06"
      },
      {
        "name": "北苑家园清友园",
        "geometry": {
          "type": "Point",
          "coordinates": [
            116.427997,
            40.039291
          ]
        },
        "point": {
          "type": "Point",
          "coordinates": [
            116.427997,
            40.039291
          ]
        },
        "date": "2020-02-06"
      },
      {
        "name": "酒仙桥电子城一号楼",
        "geometry": {
          "type": "Point",
          "coordinates": [
            116.490724,
            39.98365
          ]
        },
        "point": {
          "type": "Point",
          "coordinates": [
            116.490724,
            39.98365
          ]
        },
        "date": "2020-02-06"
      },
      {
        "name": "育新花园",
        "geometry": {
          "type": "Point",
          "coordinates": [
            116.345377,
            40.056801
          ]
        },
        "point": {
          "type": "Point",
          "coordinates": [
            116.345377,
            40.056801
          ]
        },
        "date": "2020-02-06"
      },
      {
        "name": "世纪城",
        "geometry": {
          "type": "Point",
          "coordinates": [
            116.28476,
            39.959934
          ]
        },
        "point": {
          "type": "Point",
          "coordinates": [
            116.28476,
            39.959934
          ]
        },
        "date": "2020-02-06"
      },
      {
        "name": "颐美园",
        "geometry": {
          "type": "Point",
          "coordinates": [
            116.272936,
            40.03022
          ]
        },
        "point": {
          "type": "Point",
          "coordinates": [
            116.272936,
            40.03022
          ]
        },
        "date": "2020-02-06"
      },
      {
        "name": "新纪元家园",
        "geometry": {
          "type": "Point",
          "coordinates": [
            116.2991,
            39.964817
          ]
        },
        "point": {
          "type": "Point",
          "coordinates": [
            116.2991,
            39.964817
          ]
        },
        "date": "2020-02-06"
      },
      {
        "name": "方清园",
        "geometry": {
          "type": "Point",
          "coordinates": [
            116.374062,
            40.032627
          ]
        },
        "point": {
          "type": "Point",
          "coordinates": [
            116.374062,
            40.032627
          ]
        },
        "date": "2020-02-06"
      },
      {
        "name": "富力桃园",
        "geometry": {
          "type": "Point",
          "coordinates": [
            116.378877,
            40.063637
          ]
        },
        "point": {
          "type": "Point",
          "coordinates": [
            116.378877,
            40.063637
          ]
        },
        "date": "2020-02-06"
      },
      {
        "name": "农大绿苑",
        "geometry": {
          "type": "Point",
          "coordinates": [
            116.288407,
            40.029792
          ]
        },
        "point": {
          "type": "Point",
          "coordinates": [
            116.288407,
            40.029792
          ]
        },
        "date": "2020-02-06"
      },
      {
        "name": "马连洼柳浪家园",
        "geometry": {
          "type": "Point",
          "coordinates": [
            116.297198,
            40.030638
          ]
        },
        "point": {
          "type": "Point",
          "coordinates": [
            116.297198,
            40.030638
          ]
        },
        "date": "2020-02-06"
      },
      {
        "name": "永泰庄宝盛里小区",
        "geometry": {
          "type": "Point",
          "coordinates": [
            116.369583,
            40.03656
          ]
        },
        "point": {
          "type": "Point",
          "coordinates": [
            116.369583,
            40.03656
          ]
        },
        "date": "2020-02-06"
      },
      {
        "name": "真武家园",
        "geometry": {
          "type": "Point",
          "coordinates": [
            116.348544,
            39.904586
          ]
        },
        "point": {
          "type": "Point",
          "coordinates": [
            116.348544,
            39.904586
          ]
        },
        "date": "2020-02-06"
      },
      {
        "name": "窦店镇河口村",
        "geometry": {
          "type": "Point",
          "coordinates": [
            116.167446,
            39.652186
          ]
        },
        "point": {
          "type": "Point",
          "coordinates": [
            116.167446,
            39.652186
          ]
        },
        "date": "2020-02-06"
      },
      {
        "name": "珠江四季悦城",
        "geometry": {
          "type": "Point",
          "coordinates": [
            116.583312,
            39.760059
          ]
        },
        "point": {
          "type": "Point",
          "coordinates": [
            116.583312,
            39.760059
          ]
        },
        "date": "2020-02-06"
      },
      {
        "name": "北京空军干休所大院",
        "geometry": {
          "type": "Point",
          "coordinates": [
            116.372774,
            39.984875
          ]
        },
        "point": {
          "type": "Point",
          "coordinates": [
            116.372774,
            39.984875
          ]
        },
        "date": "2020-02-06"
      },
      {
        "name": "千鹤家园",
        "geometry": {
          "type": "Point",
          "coordinates": [
            116.41951,
            39.987452
          ]
        },
        "point": {
          "type": "Point",
          "coordinates": [
            116.41951,
            39.987452
          ]
        },
        "date": "2020-02-06"
      },
      {
        "name": "西引力",
        "geometry": {
          "type": "Point",
          "coordinates": [
            116.209509,
            39.90209
          ]
        },
        "point": {
          "type": "Point",
          "coordinates": [
            116.209509,
            39.90209
          ]
        },
        "date": "2020-02-06"
      },
      {
        "name": "融景城",
        "geometry": {
          "type": "Point",
          "coordinates": [
            116.206349,
            39.894518
          ]
        },
        "point": {
          "type": "Point",
          "coordinates": [
            116.206349,
            39.894518
          ]
        },
        "date": "2020-02-06"
      },
      {
        "name": "甘露园二区",
        "geometry": {
          "type": "Point",
          "coordinates": [
            116.515994,
            39.912681
          ]
        },
        "point": {
          "type": "Point",
          "coordinates": [
            116.515994,
            39.912681
          ]
        },
        "date": "2020-02-06"
      },
      {
        "name": "鑫兆丽园",
        "geometry": {
          "type": "Point",
          "coordinates": [
            116.419817,
            40.037108
          ]
        },
        "point": {
          "type": "Point",
          "coordinates": [
            116.419817,
            40.037108
          ]
        },
        "date": "2020-02-06"
      },
      {
        "name": "紫绶园",
        "geometry": {
          "type": "Point",
          "coordinates": [
            116.428797,
            40.043068
          ]
        },
        "point": {
          "type": "Point",
          "coordinates": [
            116.428797,
            40.043068
          ]
        },
        "date": "2020-02-06"
      },
      {
        "name": "常营汇鸿家园",
        "geometry": {
          "type": "Point",
          "coordinates": [
            116.583947,
            39.919256
          ]
        },
        "point": {
          "type": "Point",
          "coordinates": [
            116.583947,
            39.919256
          ]
        },
        "date": "2020-02-06"
      },
      {
        "name": "华信医院",
        "geometry": {
          "type": "Point",
          "coordinates": [
            116.495622,
            39.965455
          ]
        },
        "point": {
          "type": "Point",
          "coordinates": [
            116.495622,
            39.965455
          ]
        },
        "date": "2020-02-06"
      },
      {
        "name": "海军研究院",
        "geometry": {
          "type": "Point",
          "coordinates": [
            116.324032,
            39.921993
          ]
        },
        "point": {
          "type": "Point",
          "coordinates": [
            116.324032,
            39.921993
          ]
        },
        "date": "2020-02-06"
      },
      {
        "name": "空港街道龙湖滟澜山（确诊）",
        "geometry": {
          "type": "Point",
          "coordinates": [
            116.501345,
            40.091729
          ]
        },
        "point": {
          "type": "Point",
          "coordinates": [
            116.501345,
            40.091729
          ]
        },
        "date": "2020-02-06"
      },
      {
        "name": "瑞康家园小区（确诊）",
        "geometry": {
          "type": "Point",
          "coordinates": [
            116.342029,
            39.739248
          ]
        },
        "point": {
          "type": "Point",
          "coordinates": [
            116.342029,
            39.739248
          ]
        },
        "date": "2020-02-06"
      },
      {
        "name": "泰禾中央广场（确诊）",
        "geometry": {
          "type": "Point",
          "coordinates": [
            116.322161,
            39.7146
          ]
        },
        "point": {
          "type": "Point",
          "coordinates": [
            116.322161,
            39.7146
          ]
        },
        "date": "2020-02-06"
      },
      {
        "name": "天通苑北一区（确诊）",
        "geometry": {
          "type": "Point",
          "coordinates": [
            116.417835,
            40.076661
          ]
        },
        "point": {
          "type": "Point",
          "coordinates": [
            116.417835,
            40.076661
          ]
        },
        "date": "2020-02-06"
      },
      {
        "name": "龙泽苑东区（确诊）",
        "geometry": {
          "type": "Point",
          "coordinates": [
            116.327374,
            40.072996
          ]
        },
        "point": {
          "type": "Point",
          "coordinates": [
            116.327374,
            40.072996
          ]
        },
        "date": "2020-02-06"
      },
      {
        "name": "西潞东里小区（确诊）",
        "geometry": {
          "type": "Point",
          "coordinates": [
            116.135335,
            39.733345
          ]
        },
        "point": {
          "type": "Point",
          "coordinates": [
            116.135335,
            39.733345
          ]
        },
        "date": "2020-02-06"
      },
      {
        "name": "于家务回族乡崔各庄村（确诊）",
        "geometry": {
          "type": "Point",
          "coordinates": [
            116.714225,
            39.693599
          ]
        },
        "point": {
          "type": "Point",
          "coordinates": [
            116.714225,
            39.693599
          ]
        },
        "date": "2020-02-06"
      },
      {
        "name": "丰台街道电报局街小区（确诊）",
        "geometry": {
          "type": "Point",
          "coordinates": [
            116.285857,
            39.850061
          ]
        },
        "point": {
          "type": "Point",
          "coordinates": [
            116.285857,
            39.850061
          ]
        },
        "date": "2020-02-06"
      },
      {
        "name": "卢沟桥街道西府颐园（确诊）",
        "geometry": {
          "type": "Point",
          "coordinates": [
            116.267026,
            39.882345
          ]
        },
        "point": {
          "type": "Point",
          "coordinates": [
            116.267026,
            39.882345
          ]
        },
        "date": "2020-02-06"
      },
      {
        "name": "亚运村街道安慧北里（确诊）",
        "geometry": {
          "type": "Point",
          "coordinates": [
            116.414287,
            39.99565
          ]
        },
        "point": {
          "type": "Point",
          "coordinates": [
            116.414287,
            39.99565
          ]
        },
        "date": "2020-02-06"
      },
      {
        "name": "来广营明天第一城（确诊）",
        "geometry": {
          "type": "Point",
          "coordinates": [
            116.409519,
            40.048137
          ]
        },
        "point": {
          "type": "Point",
          "coordinates": [
            116.409519,
            40.048137
          ]
        },
        "date": "2020-02-06"
      },
      {
        "name": "新街口街道富国里（确诊）",
        "geometry": {
          "type": "Point",
          "coordinates": [
            116.365617,
            39.929937
          ]
        },
        "point": {
          "type": "Point",
          "coordinates": [
            116.365617,
            39.929937
          ]
        },
        "date": "2020-02-06"
      },
      {
        "name": "庑殿家苑",
        "geometry": {
          "type": "Point",
          "coordinates": [
            116.433011,
            39.820018
          ]
        },
        "point": {
          "type": "Point",
          "coordinates": [
            116.433011,
            39.820018
          ]
        },
        "date": "2020-02-05"
      },
      {
        "name": "世界之花",
        "geometry": {
          "type": "Point",
          "coordinates": [
            116.420757,
            39.817217
          ]
        },
        "point": {
          "type": "Point",
          "coordinates": [
            116.420757,
            39.817217
          ]
        },
        "date": "2020-02-05"
      },
      {
        "name": "原子能院",
        "geometry": {
          "type": "Point",
          "coordinates": [
            116.047329,
            39.744398
          ]
        },
        "point": {
          "type": "Point",
          "coordinates": [
            116.047329,
            39.744398
          ]
        },
        "date": "2020-02-05"
      },
      {
        "name": "望泉西区",
        "geometry": {
          "type": "Point",
          "coordinates": [
            116.631574,
            40.119715
          ]
        },
        "point": {
          "type": "Point",
          "coordinates": [
            116.631574,
            40.119715
          ]
        },
        "date": "2020-02-05"
      },
      {
        "name": "天居园",
        "geometry": {
          "type": "Point",
          "coordinates": [
            116.413625,
            40.038539
          ]
        },
        "point": {
          "type": "Point",
          "coordinates": [
            116.413625,
            40.038539
          ]
        },
        "date": "2020-02-05"
      },
      {
        "name": "北京国际酒店",
        "geometry": {
          "type": "Point",
          "coordinates": [
            116.428472,
            39.909641
          ]
        },
        "point": {
          "type": "Point",
          "coordinates": [
            116.428472,
            39.909641
          ]
        },
        "date": "2020-02-05"
      },
      {
        "name": "海淀黄庄皇冠假日酒店",
        "geometry": {
          "type": "Point",
          "coordinates": [
            116.323019,
            39.975624
          ]
        },
        "point": {
          "type": "Point",
          "coordinates": [
            116.323019,
            39.975624
          ]
        },
        "date": "2020-02-05"
      },
      {
        "name": "潘家园布丁酒店",
        "geometry": {
          "type": "Point",
          "coordinates": [
            116.46185,
            39.875468
          ]
        },
        "point": {
          "type": "Point",
          "coordinates": [
            116.46185,
            39.875468
          ]
        },
        "date": "2020-02-05"
      },
      {
        "name": "管庄东里医院",
        "geometry": {
          "type": "Point",
          "coordinates": [
            116.593723,
            39.915846
          ]
        },
        "point": {
          "type": "Point",
          "coordinates": [
            116.593723,
            39.915846
          ]
        },
        "date": "2020-02-05"
      },
      {
        "name": "清华双清苑8号楼",
        "geometry": {
          "type": "Point",
          "coordinates": [
            116.342227,
            40.013486
          ]
        },
        "point": {
          "type": "Point",
          "coordinates": [
            116.342227,
            40.013486
          ]
        },
        "date": "2020-02-05"
      },
      {
        "name": "北科大社区",
        "geometry": {
          "type": "Point",
          "coordinates": [
            116.360852,
            39.992297
          ]
        },
        "point": {
          "type": "Point",
          "coordinates": [
            116.360852,
            39.992297
          ]
        },
        "date": "2020-02-05"
      },
      {
        "name": "花园胡同10号",
        "geometry": {
          "type": "Point",
          "coordinates": [
            116.40369,
            39.947796
          ]
        },
        "point": {
          "type": "Point",
          "coordinates": [
            116.40369,
            39.947796
          ]
        },
        "date": "2020-02-05"
      },
      {
        "name": "庙城镇郑重庄村（确诊）",
        "geometry": {
          "type": "Point",
          "coordinates": [
            116.61632,
            40.285549
          ]
        },
        "point": {
          "type": "Point",
          "coordinates": [
            116.61632,
            40.285549
          ]
        },
        "date": "2020-02-05"
      },
      {
        "name": "双河南里（确诊）",
        "geometry": {
          "type": "Point",
          "coordinates": [
            116.347193,
            39.73411
          ]
        },
        "point": {
          "type": "Point",
          "coordinates": [
            116.347193,
            39.73411
          ]
        },
        "date": "2020-02-05"
      },
      {
        "name": "金茂悦北区5号院（确诊）",
        "geometry": {
          "type": "Point",
          "coordinates": [
            116.485146,
            39.755371
          ]
        },
        "point": {
          "type": "Point",
          "coordinates": [
            116.485146,
            39.755371
          ]
        },
        "date": "2020-02-05"
      },
      {
        "name": "格林云墅（确诊）",
        "geometry": {
          "type": "Point",
          "coordinates": [
            116.401656,
            39.70811
          ]
        },
        "point": {
          "type": "Point",
          "coordinates": [
            116.401656,
            39.70811
          ]
        },
        "date": "2020-02-05"
      },
      {
        "name": "天翠阳光新城（确诊）",
        "geometry": {
          "type": "Point",
          "coordinates": [
            116.121908,
            39.954361
          ]
        },
        "point": {
          "type": "Point",
          "coordinates": [
            116.121908,
            39.954361
          ]
        },
        "date": "2020-02-05"
      },
      {
        "name": "鲁谷远洋山水（确诊）",
        "geometry": {
          "type": "Point",
          "coordinates": [
            116.240023,
            39.900649
          ]
        },
        "point": {
          "type": "Point",
          "coordinates": [
            116.240023,
            39.900649
          ]
        },
        "date": "2020-02-05"
      },
      {
        "name": "玉泉北里2区（确诊）",
        "geometry": {
          "type": "Point",
          "coordinates": [
            116.24881,
            39.919428
          ]
        },
        "point": {
          "type": "Point",
          "coordinates": [
            116.24881,
            39.919428
          ]
        },
        "date": "2020-02-05"
      },
      {
        "name": "民族大学西路66号鑫德嘉园（确诊）",
        "geometry": {
          "type": "Point",
          "coordinates": [
            116.317432,
            39.949162
          ]
        },
        "point": {
          "type": "Point",
          "coordinates": [
            116.317432,
            39.949162
          ]
        },
        "date": "2020-02-05"
      },
      {
        "name": "新街口外大街15号院（确诊）",
        "geometry": {
          "type": "Point",
          "coordinates": [
            116.370061,
            39.963717
          ]
        },
        "point": {
          "type": "Point",
          "coordinates": [
            116.370061,
            39.963717
          ]
        },
        "date": "2020-02-05"
      },
      {
        "name": "北苑路86号嘉铭园社区B区（确诊）",
        "geometry": {
          "type": "Point",
          "coordinates": [
            116.426212,
            40.004212
          ]
        },
        "point": {
          "type": "Point",
          "coordinates": [
            116.426212,
            40.004212
          ]
        },
        "date": "2020-02-05"
      },
      {
        "name": "慈云寺北里（确诊）",
        "geometry": {
          "type": "Point",
          "coordinates": [
            116.495146,
            39.918334
          ]
        },
        "point": {
          "type": "Point",
          "coordinates": [
            116.495146,
            39.918334
          ]
        },
        "date": "2020-02-05"
      },
      {
        "name": "来广营乡筑华年（确诊）",
        "geometry": {
          "type": "Point",
          "coordinates": [
            116.427805,
            40.03593
          ]
        },
        "point": {
          "type": "Point",
          "coordinates": [
            116.427805,
            40.03593
          ]
        },
        "date": "2020-02-05"
      },
      {
        "name": "展览路街道南营房社区（确诊）",
        "geometry": {
          "type": "Point",
          "coordinates": [
            116.350777,
            39.919754
          ]
        },
        "point": {
          "type": "Point",
          "coordinates": [
            116.350777,
            39.919754
          ]
        },
        "date": "2020-02-05"
      },
      {
        "name": "复兴门外大街甲20号（确诊）",
        "geometry": {
          "type": "Point",
          "coordinates": [
            116.339985,
            39.905574
          ]
        },
        "point": {
          "type": "Point",
          "coordinates": [
            116.339985,
            39.905574
          ]
        },
        "date": "2020-02-05"
      },
      {
        "name": "体育馆街道驹章胡同（确诊）",
        "geometry": {
          "type": "Point",
          "coordinates": [
            116.426008,
            39.88813
          ]
        },
        "point": {
          "type": "Point",
          "coordinates": [
            116.426008,
            39.88813
          ]
        },
        "date": "2020-02-05"
      },
      {
        "name": "广源小区东区",
        "geometry": {
          "type": "Polygon",
          "coordinates": [
            [
              [
                116.335169,
                39.892748
              ],
              [
                116.337235,
                39.892855
              ],
              [
                116.337277,
                39.891258
              ],
              [
                116.335207,
                39.891246
              ]
            ]
          ]
        },
        "point": {
          "type": "Point",
          "coordinates": [
            116.336226,
            39.892036
          ]
        },
        "date": "2020-02-01"
      },
      {
        "name": "教子胡同",
        "geometry": {
          "type": "Point",
          "coordinates": [
            116.367537,
            39.886418
          ]
        },
        "point": {
          "type": "Point",
          "coordinates": [
            116.367537,
            39.886418
          ]
        },
        "date": "2020-02-01"
      },
      {
        "name": "崇文门东大街6号楼（确诊）",
        "geometry": {
          "type": "Point",
          "coordinates": [
            116.430768,
            39.900373
          ]
        },
        "point": {
          "type": "Point",
          "coordinates": [
            116.430768,
            39.900373
          ]
        },
        "date": "2020-02-01"
      },
      {
        "name": "远见名苑2号楼",
        "geometry": {
          "type": "Point",
          "coordinates": [
            116.338402,
            39.885061
          ]
        },
        "point": {
          "type": "Point",
          "coordinates": [
            116.338402,
            39.885061
          ]
        },
        "date": "2020-02-01"
      },
      {
        "name": "月坛北街8号（确诊）",
        "geometry": {
          "type": "Point",
          "coordinates": [
            116.350719,
            39.918154
          ]
        },
        "point": {
          "type": "Point",
          "coordinates": [
            116.350719,
            39.918154
          ]
        },
        "date": "2020-02-01"
      },
      {
        "name": "北苑一号院",
        "geometry": {
          "type": "Polygon",
          "coordinates": [
            [
              [
                116.424663,
                40.024425
              ],
              [
                116.430049,
                40.024416
              ],
              [
                116.430135,
                40.022354
              ],
              [
                116.425575,
                40.022436
              ],
              [
                116.425682,
                40.022987
              ],
              [
                116.424631,
                40.023036
              ]
            ]
          ]
        },
        "point": {
          "type": "Point",
          "coordinates": [
            116.427474,
            40.023488
          ]
        },
        "date": "2020-02-01"
      },
      {
        "name": "来广营广华居",
        "geometry": {
          "type": "Point",
          "coordinates": [
            116.439418,
            40.033801
          ]
        },
        "point": {
          "type": "Point",
          "coordinates": [
            116.439418,
            40.033801
          ]
        },
        "date": "2020-02-01"
      },
      {
        "name": "门头沟区梧桐汇",
        "geometry": {
          "type": "Point",
          "coordinates": [
            116.145351,
            39.897631
          ]
        },
        "point": {
          "type": "Point",
          "coordinates": [
            116.145351,
            39.897631
          ]
        },
        "date": "2020-02-01"
      },
      {
        "name": "观景园",
        "geometry": {
          "type": "Polygon",
          "coordinates": [
            [
              [
                116.371362,
                40.03684
              ],
              [
                116.375718,
                40.037645
              ],
              [
                116.376823,
                40.03509
              ],
              [
                116.374763,
                40.034507
              ],
              [
                116.37486,
                40.033956
              ],
              [
                116.372285,
                40.033496
              ]
            ]
          ]
        },
        "point": {
          "type": "Point",
          "coordinates": [
            116.374345,
            40.035476
          ]
        },
        "date": "2020-02-01"
      },
      {
        "name": "百旺茉莉园",
        "geometry": {
          "type": "Polygon",
          "coordinates": [
            [
              [
                116.248626,
                40.049898
              ],
              [
                116.257209,
                40.049882
              ],
              [
                116.257692,
                40.047508
              ],
              [
                116.25457,
                40.04626
              ],
              [
                116.248991,
                40.048034
              ]
            ]
          ]
        },
        "point": {
          "type": "Point",
          "coordinates": [
            116.252982,
            40.048486
          ]
        },
        "date": "2020-02-01"
      },
      {
        "name": "西二旗空研BD院",
        "geometry": {
          "type": "Point",
          "coordinates": [
            116.321603,
            40.054879
          ]
        },
        "point": {
          "type": "Point",
          "coordinates": [
            116.321603,
            40.054879
          ]
        },
        "date": "2020-02-01"
      },
      {
        "name": "永定路52号院",
        "geometry": {
          "type": "Polygon",
          "coordinates": [
            [
              [
                116.26806,
                39.910164
              ],
              [
                116.269272,
                39.910148
              ],
              [
                116.26924,
                39.912831
              ],
              [
                116.268381,
                39.912814
              ],
              [
                116.268403,
                39.911263
              ],
              [
                116.268065,
                39.911152
              ]
            ]
          ]
        },
        "point": {
          "type": "Point",
          "coordinates": [
            116.268757,
            39.911366
          ]
        },
        "date": "2020-02-01"
      },
      {
        "name": "农影小区",
        "geometry": {
          "type": "Point",
          "coordinates": [
            116.323547,
            39.9625
          ]
        },
        "point": {
          "type": "Point",
          "coordinates": [
            116.323547,
            39.9625
          ]
        },
        "date": "2020-02-01"
      },
      {
        "name": "华腾园",
        "geometry": {
          "type": "Point",
          "coordinates": [
            116.465157,
            39.887327
          ]
        },
        "point": {
          "type": "Point",
          "coordinates": [
            116.465157,
            39.887327
          ]
        },
        "date": "2020-02-01"
      },
      {
        "name": "林萃路10号院",
        "geometry": {
          "type": "Polygon",
          "coordinates": [
            [
              [
                116.373477,
                40.010921
              ],
              [
                116.374749,
                40.010978
              ],
              [
                116.374818,
                40.010197
              ],
              [
                116.374641,
                40.00998
              ],
              [
                116.373579,
                40.009922
              ]
            ]
          ]
        },
        "point": {
          "type": "Point",
          "coordinates": [
            116.374196,
            40.010477
          ]
        },
        "date": "2020-02-01"
      },
      {
        "name": "林萃西里",
        "geometry": {
          "type": "Point",
          "coordinates": [
            116.369509,
            40.012078
          ]
        },
        "point": {
          "type": "Point",
          "coordinates": [
            116.369509,
            40.012078
          ]
        },
        "date": "2020-01-31"
      },
      {
        "name": "珠江罗马嘉园",
        "geometry": {
          "type": "Point",
          "coordinates": [
            116.513744,
            39.923395
          ]
        },
        "point": {
          "type": "Point",
          "coordinates": [
            116.513744,
            39.923395
          ]
        },
        "date": "2020-02-01"
      },
      {
        "name": "澳林春天二期",
        "geometry": {
          "type": "Point",
          "coordinates": [
            116.3738,
            40.01226
          ]
        },
        "point": {
          "type": "Point",
          "coordinates": [
            116.3738,
            40.01226
          ]
        },
        "date": "2020-02-04"
      },
      {
        "name": "中灿苑",
        "geometry": {
          "type": "Point",
          "coordinates": [
            116.410158,
            40.007346
          ]
        },
        "point": {
          "type": "Point",
          "coordinates": [
            116.410158,
            40.007346
          ]
        },
        "date": "2020-02-04"
      },
      {
        "name": "怡锦园",
        "geometry": {
          "type": "Point",
          "coordinates": [
            116.290355,
            39.833529
          ]
        },
        "point": {
          "type": "Point",
          "coordinates": [
            116.290355,
            39.833529
          ]
        },
        "date": "2020-02-04"
      },
      {
        "name": "万年花城",
        "geometry": {
          "type": "Polygon",
          "coordinates": [
            [
              [
                116.320401,
                39.844335
              ],
              [
                116.323169,
                39.844343
              ],
              [
                116.32319,
                39.843874
              ],
              [
                116.321919,
                39.843264
              ],
              [
                116.321914,
                39.843268
              ],
              [
                116.321897,
                39.843103
              ],
              [
                116.320889,
                39.84307
              ],
              [
                116.320857,
                39.843445
              ],
              [
                116.320272,
                39.843458
              ]
            ]
          ]
        },
        "point": {
          "type": "Point",
          "coordinates": [
            116.32164,
            39.843816
          ]
        },
        "date": "2020-02-01"
      },
      {
        "name": "远洋自然",
        "geometry": {
          "type": "Polygon",
          "coordinates": [
            [
              [
                116.388308,
                39.841959
              ],
              [
                116.391902,
                39.841761
              ],
              [
                116.391881,
                39.839726
              ],
              [
                116.388372,
                39.840179
              ]
            ]
          ]
        },
        "point": {
          "type": "Point",
          "coordinates": [
            116.390164,
            39.840929
          ]
        },
        "date": "2020-02-01"
      },
      {
        "name": "怡海花园",
        "geometry": {
          "type": "Point",
          "coordinates": [
            116.301473,
            39.833917
          ]
        },
        "point": {
          "type": "Point",
          "coordinates": [
            116.301473,
            39.833917
          ]
        },
        "date": "2020-02-01"
      },
      {
        "name": "太平桥街道华源四里（确诊）",
        "geometry": {
          "type": "Point",
          "coordinates": [
            116.319191,
            39.881091
          ]
        },
        "point": {
          "type": "Point",
          "coordinates": [
            116.319191,
            39.881091
          ]
        },
        "date": "2020-02-07"
      },
      {
        "name": "太平桥中里2号楼",
        "geometry": {
          "type": "Point",
          "coordinates": [
            116.320416,
            39.887756
          ]
        },
        "point": {
          "type": "Point",
          "coordinates": [
            116.320416,
            39.887756
          ]
        },
        "date": "2020-02-01"
      },
      {
        "name": "嘉州水郡北区130号楼",
        "geometry": {
          "type": "Point",
          "coordinates": [
            116.166649,
            39.771214
          ]
        },
        "point": {
          "type": "Point",
          "coordinates": [
            116.166649,
            39.771214
          ]
        },
        "date": "2020-02-04"
      },
      {
        "name": "恒大江湾7号楼（确诊）",
        "geometry": {
          "type": "Point",
          "coordinates": [
            116.531243,
            39.969588
          ]
        },
        "point": {
          "type": "Point",
          "coordinates": [
            116.531243,
            39.969588
          ]
        },
        "date": "2020-02-04"
      },
      {
        "name": "增产路地区",
        "geometry": {
          "type": "Point",
          "coordinates": [
            116.094388,
            39.940691
          ]
        },
        "point": {
          "type": "Point",
          "coordinates": [
            116.094388,
            39.940691
          ]
        },
        "date": "2020-02-04"
      },
      {
        "name": "回龙观龙锦苑",
        "geometry": {
          "type": "Point",
          "coordinates": [
            116.363478,
            40.08833
          ]
        },
        "point": {
          "type": "Point",
          "coordinates": [
            116.363478,
            40.08833
          ]
        },
        "date": "2020-02-04"
      },
      {
        "name": "天瑞嘉园",
        "geometry": {
          "type": "Polygon",
          "coordinates": [
            [
              [
                116.208196,
                39.682285
              ],
              [
                116.208496,
                39.683309
              ],
              [
                116.20797,
                39.683432
              ],
              [
                116.208421,
                39.68491
              ],
              [
                116.203496,
                39.68572
              ],
              [
                116.203335,
                39.683234
              ]
            ]
          ]
        },
        "point": {
          "type": "Point",
          "coordinates": [
            116.205846,
            39.68406
          ]
        },
        "date": "2020-02-04"
      },
      {
        "name": "玉璟园",
        "geometry": {
          "type": "Polygon",
          "coordinates": [
            [
              [
                116.453376,
                39.765624
              ],
              [
                116.456187,
                39.765764
              ],
              [
                116.456519,
                39.764127
              ],
              [
                116.456074,
                39.764098
              ],
              [
                116.456112,
                39.763694
              ],
              [
                116.45395,
                39.763735
              ]
            ]
          ]
        },
        "point": {
          "type": "Point",
          "coordinates": [
            116.454996,
            39.764754
          ]
        },
        "date": "2020-02-04"
      }
    ]
  },
  {
    "name": "天津市",
    "center": {
      "type": "Point",
      "coordinates": [
        117.201538,
        39.085294
      ]
    },
    "updated_at": "2020/02/01 08:50:48",
    "pois": [
      {
        "name": "史各庄镇陈甫村（确诊）",
        "geometry": {
          "type": "Point",
          "coordinates": [
            117.24443,
            39.730347
          ]
        },
        "point": {
          "type": "Point",
          "coordinates": [
            117.24443,
            39.730347
          ]
        },
        "date": "2020-02-09"
      },
      {
        "name": "宁河区王北村（确诊）",
        "geometry": {
          "type": "Point",
          "coordinates": [
            117.772053,
            39.358864
          ]
        },
        "point": {
          "type": "Point",
          "coordinates": [
            117.772053,
            39.358864
          ]
        },
        "date": "2020-02-01"
      },
      {
        "name": "宁河区运河家园（确诊）",
        "geometry": {
          "type": "Polygon",
          "coordinates": [
            [
              [
                117.798526,
                39.35245
              ],
              [
                117.801186,
                39.354076
              ],
              [
                117.805156,
                39.350027
              ],
              [
                117.800693,
                39.349546
              ]
            ]
          ]
        },
        "point": {
          "type": "Point",
          "coordinates": [
            117.80168,
            39.351504
          ]
        },
        "date": "2020-02-01"
      },
      {
        "name": "宝坻区窝贝厂村（确诊）",
        "geometry": {
          "type": "Point",
          "coordinates": [
            117.533503,
            39.603517
          ]
        },
        "point": {
          "type": "Point",
          "coordinates": [
            117.533503,
            39.603517
          ]
        },
        "date": "2020-02-09"
      },
      {
        "name": "宝坻区菜芽庄村（确诊）",
        "geometry": {
          "type": "Point",
          "coordinates": [
            117.373447,
            39.60422
          ]
        },
        "point": {
          "type": "Point",
          "coordinates": [
            117.373447,
            39.60422
          ]
        },
        "date": "2020-02-09"
      },
      {
        "name": "宝坻区田家桥村（确诊）",
        "geometry": {
          "type": "Point",
          "coordinates": [
            117.414386,
            39.505662
          ]
        },
        "point": {
          "type": "Point",
          "coordinates": [
            117.414386,
            39.505662
          ]
        },
        "date": "2020-02-09"
      },
      {
        "name": "宝坻区华苑东区（确诊）",
        "geometry": {
          "type": "Point",
          "coordinates": [
            117.30585,
            39.71052
          ]
        },
        "point": {
          "type": "Point",
          "coordinates": [
            117.30585,
            39.71052
          ]
        },
        "date": "2020-02-01"
      },
      {
        "name": "牛道口镇沟头村（确诊）",
        "geometry": {
          "type": "Point",
          "coordinates": [
            117.203611,
            39.81317
          ]
        },
        "point": {
          "type": "Point",
          "coordinates": [
            117.203611,
            39.81317
          ]
        },
        "date": "2020-02-05"
      },
      {
        "name": "海滨街道蓝水湾小区（确诊）",
        "geometry": {
          "type": "Point",
          "coordinates": [
            117.304198,
            39.737956
          ]
        },
        "point": {
          "type": "Point",
          "coordinates": [
            117.304198,
            39.737956
          ]
        },
        "date": "2020-02-03"
      },
      {
        "name": "海滨街道御景华城（确诊）",
        "geometry": {
          "type": "Point",
          "coordinates": [
            117.35074,
            39.73917
          ]
        },
        "point": {
          "type": "Point",
          "coordinates": [
            117.35074,
            39.73917
          ]
        },
        "date": "2020-02-04"
      },
      {
        "name": "宝平街道瑞景花园小区（确诊）",
        "geometry": {
          "type": "Point",
          "coordinates": [
            117.311241,
            39.722373
          ]
        },
        "point": {
          "type": "Point",
          "coordinates": [
            117.311241,
            39.722373
          ]
        },
        "date": "2020-02-09"
      },
      {
        "name": "宝平街道逸城雅园小区（确诊）",
        "geometry": {
          "type": "Point",
          "coordinates": [
            117.300258,
            39.706013
          ]
        },
        "point": {
          "type": "Point",
          "coordinates": [
            117.300258,
            39.706013
          ]
        },
        "date": "2020-02-09"
      },
      {
        "name": "宝平街道安田心屿小区（确诊）",
        "geometry": {
          "type": "Point",
          "coordinates": [
            117.297667,
            39.717968
          ]
        },
        "point": {
          "type": "Point",
          "coordinates": [
            117.297667,
            39.717968
          ]
        },
        "date": "2020-02-09"
      },
      {
        "name": "宝平街道宝境檀香小区（确诊）",
        "geometry": {
          "type": "Point",
          "coordinates": [
            117.297667,
            39.717968
          ]
        },
        "point": {
          "type": "Point",
          "coordinates": [
            117.297667,
            39.717968
          ]
        },
        "date": "2020-02-05"
      },
      {
        "name": "宝坻区宝平景苑东、西区（确诊）",
        "geometry": {
          "type": "Polygon",
          "coordinates": [
            [
              [
                117.288905,
                39.711273
              ],
              [
                117.293669,
                39.711026
              ],
              [
                117.29354,
                39.708665
              ],
              [
                117.297081,
                39.708302
              ],
              [
                117.296866,
                39.706552
              ],
              [
                117.288154,
                39.707146
              ]
            ]
          ]
        },
        "point": {
          "type": "Point",
          "coordinates": [
            117.292961,
            39.708764
          ]
        },
        "date": "2020-02-01"
      },
      {
        "name": "宝坻区河景馨园（确诊）",
        "geometry": {
          "type": "Point",
          "coordinates": [
            117.289306,
            39.701867
          ]
        },
        "point": {
          "type": "Point",
          "coordinates": [
            117.289306,
            39.701867
          ]
        },
        "date": "2020-02-01"
      },
      {
        "name": "宝坻区开元新居（确诊）",
        "geometry": {
          "type": "Point",
          "coordinates": [
            117.298999,
            39.733548
          ]
        },
        "point": {
          "type": "Point",
          "coordinates": [
            117.298999,
            39.733548
          ]
        },
        "date": "2020-02-01"
      },
      {
        "name": "宝坻区宝鑫景苑（确诊）",
        "geometry": {
          "type": "Point",
          "coordinates": [
            117.323769,
            39.735339
          ]
        },
        "point": {
          "type": "Point",
          "coordinates": [
            117.323769,
            39.735339
          ]
        },
        "date": "2020-02-01"
      },
      {
        "name": "宝坻区御景华城（确诊）",
        "geometry": {
          "type": "Point",
          "coordinates": [
            117.350119,
            39.737929
          ]
        },
        "point": {
          "type": "Point",
          "coordinates": [
            117.350119,
            39.737929
          ]
        },
        "date": "2020-02-01"
      },
      {
        "name": "宝坻区焦山寺村（确诊）",
        "geometry": {
          "type": "Point",
          "coordinates": [
            117.28129,
            39.779686
          ]
        },
        "point": {
          "type": "Point",
          "coordinates": [
            117.28129,
            39.779686
          ]
        },
        "date": "2020-02-01"
      },
      {
        "name": "宝坻区凯瑞国际小区（确诊）",
        "geometry": {
          "type": "Point",
          "coordinates": [
            117.336474,
            39.723154
          ]
        },
        "point": {
          "type": "Point",
          "coordinates": [
            117.336474,
            39.723154
          ]
        },
        "date": "2020-02-01"
      },
      {
        "name": "宝平街道华苑东区（确诊）",
        "geometry": {
          "type": "Point",
          "coordinates": [
            117.296759,
            39.739265
          ]
        },
        "point": {
          "type": "Point",
          "coordinates": [
            117.296759,
            39.739265
          ]
        },
        "date": "2020-02-07"
      },
      {
        "name": "宝平街道凯旋家园小区（确诊）",
        "geometry": {
          "type": "Point",
          "coordinates": [
            117.296759,
            39.739265
          ]
        },
        "point": {
          "type": "Point",
          "coordinates": [
            117.296759,
            39.739265
          ]
        },
        "date": "2020-02-07"
      },
      {
        "name": "朝霞街道开元新居小区（确诊）",
        "geometry": {
          "type": "Point",
          "coordinates": [
            117.287893,
            39.735728
          ]
        },
        "point": {
          "type": "Point",
          "coordinates": [
            117.287893,
            39.735728
          ]
        },
        "date": "2020-02-09"
      },
      {
        "name": "朝霞街道状元城小区（确诊）",
        "geometry": {
          "type": "Point",
          "coordinates": [
            117.287893,
            39.735728
          ]
        },
        "point": {
          "type": "Point",
          "coordinates": [
            117.287893,
            39.735728
          ]
        },
        "date": "2020-02-09"
      },
      {
        "name": "宝平街道河景嘉园小区（确诊）",
        "geometry": {
          "type": "Point",
          "coordinates": [
            117.28941,
            39.701559
          ]
        },
        "point": {
          "type": "Point",
          "coordinates": [
            117.28941,
            39.701559
          ]
        },
        "date": "2020-02-09"
      },
      {
        "name": "钰华街道金玉四园小区（确诊）",
        "geometry": {
          "type": "Point",
          "coordinates": [
            117.327759,
            39.713531
          ]
        },
        "point": {
          "type": "Point",
          "coordinates": [
            117.327759,
            39.713531
          ]
        },
        "date": "2020-02-09"
      },
      {
        "name": "钰华街道顺驰小区（确诊）",
        "geometry": {
          "type": "Point",
          "coordinates": [
            117.327759,
            39.713531
          ]
        },
        "point": {
          "type": "Point",
          "coordinates": [
            117.327759,
            39.713531
          ]
        },
        "date": "2020-02-07"
      },
      {
        "name": "宝平街道蝶恋新园小区（确诊）",
        "geometry": {
          "type": "Point",
          "coordinates": [
            117.300666,
            39.707768
          ]
        },
        "point": {
          "type": "Point",
          "coordinates": [
            117.300666,
            39.707768
          ]
        },
        "date": "2020-02-07"
      },
      {
        "name": "口东镇前齐各庄村（确诊）",
        "geometry": {
          "type": "Point",
          "coordinates": [
            117.400098,
            39.671803
          ]
        },
        "point": {
          "type": "Point",
          "coordinates": [
            117.400098,
            39.671803
          ]
        },
        "date": "2020-02-07"
      },
      {
        "name": "西青区中北镇溪秀苑小区（确诊）",
        "geometry": {
          "type": "Point",
          "coordinates": [
            117.092957,
            39.123312
          ]
        },
        "point": {
          "type": "Point",
          "coordinates": [
            117.092957,
            39.123312
          ]
        },
        "date": "2020-02-07"
      },
      {
        "name": "宝坻区古庄村（确诊）",
        "geometry": {
          "type": "Point",
          "coordinates": [
            117.259814,
            39.590953
          ]
        },
        "point": {
          "type": "Point",
          "coordinates": [
            117.259814,
            39.590953
          ]
        },
        "date": "2020-02-02"
      },
      {
        "name": "宝坻区大钟庄村（确诊）",
        "geometry": {
          "type": "Point",
          "coordinates": [
            117.577378,
            39.687394
          ]
        },
        "point": {
          "type": "Point",
          "coordinates": [
            117.577378,
            39.687394
          ]
        },
        "date": "2020-02-02"
      },
      {
        "name": "滨海新区万通上北新新家园（确诊）",
        "geometry": {
          "type": "Point",
          "coordinates": [
            117.645761,
            39.062401
          ]
        },
        "point": {
          "type": "Point",
          "coordinates": [
            117.645761,
            39.062401
          ]
        },
        "date": "2020-02-05"
      },
      {
        "name": "滨海新区中新生态城（确诊）",
        "geometry": {
          "type": "Point",
          "coordinates": [
            117.74044,
            39.125217
          ]
        },
        "point": {
          "type": "Point",
          "coordinates": [
            117.74044,
            39.125217
          ]
        },
        "date": "2020-02-01"
      },
      {
        "name": "东丽区揽湖苑别墅（确诊）",
        "geometry": {
          "type": "Point",
          "coordinates": [
            117.502647,
            39.174884
          ]
        },
        "point": {
          "type": "Point",
          "coordinates": [
            117.502647,
            39.174884
          ]
        },
        "date": "2020-02-01"
      },
      {
        "name": "西青区杨柳青镇（确诊）",
        "geometry": {
          "type": "Point",
          "coordinates": [
            117.015214,
            39.128392
          ]
        },
        "point": {
          "type": "Point",
          "coordinates": [
            117.015214,
            39.128392
          ]
        },
        "date": "2020-02-01"
      }
    ]
  },
  {
    "name": "上海市",
    "province": "上海市",
    "center": {
      "type": "Point",
      "coordinates": [
        121.4739998247011,
        31.230000555238348
      ]
    },
    "updated_at": "2020/02/10 14:28:53",
    "pois": [
      {
        "name": "四季绿城北区",
        "geometry": {
          "type": "Point",
          "coordinates": [
            121.47733900015125,
            31.330256000116016
          ]
        },
        "point": {
          "type": "Point",
          "coordinates": [
            121.47733900015125,
            31.330256000116016
          ]
        },
        "date": "2020-02-10"
      },
      {
        "name": "虹六菜市场",
        "geometry": {
          "type": "Point",
          "coordinates": [
            121.38244399999283,
            31.184190999991177
          ]
        },
        "point": {
          "type": "Point",
          "coordinates": [
            121.38244399999283,
            31.184190999991177
          ]
        },
        "date": "2020-02-10"
      },
      {
        "name": "城市超市(虹梅路店)",
        "geometry": {
          "type": "Point",
          "coordinates": [
            121.38804999999651,
            31.186838999995327
          ]
        },
        "point": {
          "type": "Point",
          "coordinates": [
            121.38804999999651,
            31.186838999995327
          ]
        },
        "date": "2020-02-10"
      },
      {
        "name": "虹桥花苑",
        "geometry": {
          "type": "Polygon",
          "coordinates": [
            [
              [
                121.38641599999558,
                31.189370999994278
              ],
              [
                121.38639699999557,
                31.189414999994263
              ],
              [
                121.38640499999556,
                31.189464999994268
              ],
              [
                121.38646799999562,
                31.18949899999431
              ],
              [
                121.38740999999617,
                31.189829999994938
              ],
              [
                121.38832799999665,
                31.19017399999551
              ],
              [
                121.38834899999665,
                31.19017599999552
              ],
              [
                121.38835999999667,
                31.190173999995526
              ],
              [
                121.38836999999666,
                31.190161999995535
              ],
              [
                121.3883989999967,
                31.19011499999555
              ],
              [
                121.38887899999692,
                31.18927899999583
              ],
              [
                121.38892399999695,
                31.189240999995857
              ],
              [
                121.38894899999696,
                31.189224999995872
              ],
              [
                121.38900499999697,
                31.189227999995904
              ],
              [
                121.3894599999972,
                31.18941699999616
              ],
              [
                121.38954799999725,
                31.18941199999621
              ],
              [
                121.38961999999727,
                31.189374999996247
              ],
              [
                121.39000399999746,
                31.188653999996454
              ],
              [
                121.38999999999744,
                31.18859799999645
              ],
              [
                121.38996399999743,
                31.18853999999643
              ],
              [
                121.38983399999736,
                31.188437999996363
              ],
              [
                121.38960499999726,
                31.18835099999624
              ],
              [
                121.38923099999708,
                31.188195999996033
              ],
              [
                121.3884309999967,
                31.18785099999556
              ],
              [
                121.38783599999638,
                31.1875079999952
              ],
              [
                121.38780699999636,
                31.187505999995178
              ],
              [
                121.38778299999636,
                31.187512999995164
              ],
              [
                121.38774799999634,
                31.187538999995144
              ],
              [
                121.38712999999599,
                31.18836699999475
              ],
              [
                121.38691099999588,
                31.188694999994606
              ],
              [
                121.38641599999558,
                31.189370999994278
              ],
              [
                121.38641599999558,
                31.189370999994278
              ]
            ]
          ]
        },
        "point": {
          "type": "Point",
          "coordinates": [
            121.38816342396541,
            31.188875044753527
          ]
        },
        "date": "2020-02-10"
      },
      {
        "name": "尚海湾豪庭",
        "geometry": {
          "type": "Point",
          "coordinates": [
            121.45909600008163,
            31.178919000058933
          ]
        },
        "point": {
          "type": "Point",
          "coordinates": [
            121.45909600008163,
            31.178919000058933
          ]
        },
        "date": "2020-02-10"
      },
      {
        "name": "新凯家园一期",
        "geometry": {
          "type": "Polygon",
          "coordinates": [
            [
              [
                121.23182900000201,
                31.104261000001806
              ],
              [
                121.23174700000203,
                31.105252000001823
              ],
              [
                121.23160600000207,
                31.105934000001852
              ],
              [
                121.23143600000213,
                31.107140000001888
              ],
              [
                121.23131500000217,
                31.10802600000191
              ],
              [
                121.23131400000216,
                31.108517000001907
              ],
              [
                121.23574900000102,
                31.109311000001153
              ],
              [
                121.2369660000008,
                31.104164000001013
              ],
              [
                121.23417600000137,
                31.10370300000138
              ],
              [
                121.23422100000136,
                31.104209000001376
              ],
              [
                121.23422300000135,
                31.104341000001376
              ],
              [
                121.23417200000137,
                31.104444000001383
              ],
              [
                121.23392100000142,
                31.104776000001426
              ],
              [
                121.23375800000146,
                31.10487300000145
              ],
              [
                121.23182900000201,
                31.104261000001806
              ],
              [
                121.23182900000201,
                31.104261000001806
              ]
            ]
          ]
        },
        "point": {
          "type": "Point",
          "coordinates": [
            121.23410219366961,
            31.106528645673446
          ]
        },
        "date": "2020-02-09"
      },
      {
        "name": "永辉超市(嘉定宝龙广场店)",
        "geometry": {
          "type": "Point",
          "coordinates": [
            121.26114799999954,
            31.346139999999448
          ]
        },
        "point": {
          "type": "Point",
          "coordinates": [
            121.26114799999954,
            31.346139999999448
          ]
        },
        "date": "2020-02-09"
      },
      {
        "name": "发祥路89号",
        "geometry": {
          "type": "Point",
          "coordinates": [
            121.33675399994445,
            31.245472999944745
          ]
        },
        "point": {
          "type": "Point",
          "coordinates": [
            121.33675399994445,
            31.245472999944745
          ]
        },
        "date": "2020-02-09"
      },
      {
        "name": "光明D9空间",
        "geometry": {
          "type": "Point",
          "coordinates": [
            121.26368099999911,
            31.346265999998995
          ]
        },
        "point": {
          "type": "Point",
          "coordinates": [
            121.26368099999911,
            31.346265999998995
          ]
        },
        "date": "2020-02-09"
      },
      {
        "name": "大润发(华漕店)",
        "geometry": {
          "type": "Polygon",
          "coordinates": [
            [
              [
                121.29267599997853,
                31.211146999977434
              ],
              [
                121.29347599997757,
                31.21055399997648
              ],
              [
                121.29201799997931,
                31.208981999978175
              ],
              [
                121.29106999998041,
                31.209543999979275
              ],
              [
                121.29224399997905,
                31.21073899997793
              ],
              [
                121.29267599997853,
                31.211146999977434
              ],
              [
                121.29267599997853,
                31.211146999977434
              ]
            ]
          ]
        },
        "point": {
          "type": "Point",
          "coordinates": [
            121.29229341247239,
            31.210051693253586
          ]
        },
        "date": "2020-02-09"
      },
      {
        "name": "地铁虹桥2号航站楼站",
        "geometry": {
          "type": "Point",
          "coordinates": [
            121.32629899994456,
            31.194272999943834
          ]
        },
        "point": {
          "type": "Point",
          "coordinates": [
            121.32629899994456,
            31.194272999943834
          ]
        },
        "date": "2020-02-09"
      },
      {
        "name": "虹桥国际机场",
        "geometry": {
          "type": "Point",
          "coordinates": [
            121.328327999944,
            31.19240099994323
          ]
        },
        "point": {
          "type": "Point",
          "coordinates": [
            121.328327999944,
            31.19240099994323
          ]
        },
        "date": "2020-02-09"
      },
      {
        "name": "爱博一村",
        "geometry": {
          "type": "Polygon",
          "coordinates": [
            [
              [
                121.30851199995895,
                31.20732899995822
              ],
              [
                121.30852699995894,
                31.207376999958203
              ],
              [
                121.30856299995892,
                31.207414999958168
              ],
              [
                121.30931799995804,
                31.207595999957316
              ],
              [
                121.30933899995802,
                31.207618999957294
              ],
              [
                121.309344999958,
                31.20764699995729
              ],
              [
                121.3092669999581,
                31.208001999957382
              ],
              [
                121.30918699995817,
                31.20833399995748
              ],
              [
                121.30919199995817,
                31.20839899995747
              ],
              [
                121.30921899995815,
                31.208433999957442
              ],
              [
                121.3106779999565,
                31.20868199995584
              ],
              [
                121.31089699995624,
                31.208717999955606
              ],
              [
                121.31248099995456,
                31.20895699995395
              ],
              [
                121.31251799995451,
                31.20894799995391
              ],
              [
                121.3125339999545,
                31.208915999953895
              ],
              [
                121.3126239999544,
                31.20805499995379
              ],
              [
                121.3127259999543,
                31.20697999995367
              ],
              [
                121.3128119999542,
                31.205916999953562
              ],
              [
                121.31288899995413,
                31.204638999953463
              ],
              [
                121.31288299995414,
                31.20460499995347
              ],
              [
                121.31285899995417,
                31.20458399995349
              ],
              [
                121.31019899995704,
                31.204332999956286
              ],
              [
                121.31017699995706,
                31.204342999956314
              ],
              [
                121.31017099995707,
                31.204363999956318
              ],
              [
                121.31010799995714,
                31.205123999956403
              ],
              [
                121.31005399995719,
                31.205351999956466
              ],
              [
                121.31002899995724,
                31.20537099995649
              ],
              [
                121.30999999995727,
                31.205372999956527
              ],
              [
                121.30890199995852,
                31.205358999957745
              ],
              [
                121.30887299995855,
                31.20536899995778
              ],
              [
                121.30885599995858,
                31.2053969999578
              ],
              [
                121.3085819999589,
                31.206944999958136
              ],
              [
                121.30851199995895,
                31.20732899995822
              ],
              [
                121.30851199995895,
                31.20732899995822
              ]
            ]
          ]
        },
        "point": {
          "type": "Point",
          "coordinates": [
            121.31092652218398,
            31.206635841651334
          ]
        },
        "date": "2020-02-09"
      },
      {
        "name": "中华美路60弄",
        "geometry": {
          "type": "Polygon",
          "coordinates": [
            [
              [
                121.33002599994367,
                31.2198989999435
              ],
              [
                121.32985099994369,
                31.218777999943494
              ],
              [
                121.32963199994371,
                31.217929999943504
              ],
              [
                121.3309629999436,
                31.21789299994338
              ],
              [
                121.33105299994361,
                31.218341999943387
              ],
              [
                121.3311849999436,
                31.218524999943387
              ],
              [
                121.3312219999436,
                31.219848999943412
              ],
              [
                121.3310719999436,
                31.219850999943414
              ],
              [
                121.3310679999436,
                31.219950999943418
              ],
              [
                121.33066499994361,
                31.21994299994344
              ],
              [
                121.3307049999436,
                31.22042999994345
              ],
              [
                121.33011799994365,
                31.2204739999435
              ],
              [
                121.33002599994367,
                31.2198989999435
              ],
              [
                121.33002599994367,
                31.2198989999435
              ]
            ]
          ]
        },
        "point": {
          "type": "Point",
          "coordinates": [
            121.33048846992483,
            31.219039168392914
          ]
        },
        "date": "2020-02-09"
      },
      {
        "name": "西乡路91弄",
        "geometry": {
          "type": "Polygon",
          "coordinates": [
            [
              [
                121.42363000000346,
                31.268967000002277
              ],
              [
                121.42367000000348,
                31.269051000002296
              ],
              [
                121.42381800000356,
                31.269241000002353
              ],
              [
                121.4241910000038,
                31.269565000002505
              ],
              [
                121.42469500000415,
                31.270000000002725
              ],
              [
                121.42552000000474,
                31.270787000003114
              ],
              [
                121.42601400000511,
                31.271257000003366
              ],
              [
                121.42607400000516,
                31.2712870000034
              ],
              [
                121.42612300000519,
                31.271293000003425
              ],
              [
                121.42617300000524,
                31.27127500000345
              ],
              [
                121.42634000000535,
                31.27115300000354
              ],
              [
                121.42692100000585,
                31.270679000003867
              ],
              [
                121.42712000000603,
                31.270491000003982
              ],
              [
                121.42773600000656,
                31.270030000004358
              ],
              [
                121.4277550000066,
                31.26995300000437
              ],
              [
                121.4277600000066,
                31.269828000004374
              ],
              [
                121.42735800000622,
                31.269036000004125
              ],
              [
                121.42682600000578,
                31.267928000003813
              ],
              [
                121.4267360000057,
                31.267731000003764
              ],
              [
                121.42565100000483,
                31.267583000003178
              ],
              [
                121.42469900000414,
                31.26743300000273
              ],
              [
                121.42360800000344,
                31.26728400000227
              ],
              [
                121.42363700000345,
                31.267687000002276
              ],
              [
                121.42367700000348,
                31.267916000002295
              ],
              [
                121.4236940000035,
                31.2680300000023
              ],
              [
                121.42373300000352,
                31.26805900000232
              ],
              [
                121.42388200000362,
                31.26810000000238
              ],
              [
                121.42401000000369,
                31.26812700000243
              ],
              [
                121.42405600000372,
                31.26815800000245
              ],
              [
                121.42409300000375,
                31.268203000002465
              ],
              [
                121.4241690000038,
                31.268746000002498
              ],
              [
                121.4241700000038,
                31.268811000002497
              ],
              [
                121.42413000000379,
                31.26885100000248
              ],
              [
                121.42363000000346,
                31.268967000002277
              ],
              [
                121.42363000000346,
                31.268967000002277
              ]
            ]
          ]
        },
        "point": {
          "type": "Point",
          "coordinates": [
            121.42569677517076,
            31.26911901996227
          ]
        },
        "date": "2020-02-09"
      },
      {
        "name": "闻喜路935弄",
        "geometry": {
          "type": "Point",
          "coordinates": [
            121.44806400004518,
            31.307767000033017
          ]
        },
        "point": {
          "type": "Point",
          "coordinates": [
            121.44806400004518,
            31.307767000033017
          ]
        },
        "date": "2020-02-09"
      },
      {
        "name": "地铁陕西南路站",
        "geometry": {
          "type": "Point",
          "coordinates": [
            121.45915200008196,
            31.21586300005966
          ]
        },
        "point": {
          "type": "Point",
          "coordinates": [
            121.45915200008196,
            31.21586300005966
          ]
        },
        "date": "2020-02-09"
      },
      {
        "name": "地铁大木桥路站",
        "geometry": {
          "type": "Point",
          "coordinates": [
            121.46378700009933,
            31.19386400007252
          ]
        },
        "point": {
          "type": "Point",
          "coordinates": [
            121.46378700009933,
            31.19386400007252
          ]
        },
        "date": "2020-02-09"
      },
      {
        "name": "绿地崴廉公寓",
        "geometry": {
          "type": "Polygon",
          "coordinates": [
            [
              [
                121.61072599999984,
                31.28980799999951
              ],
              [
                121.61073099999984,
                31.28973899999951
              ],
              [
                121.61074699999985,
                31.289536999999505
              ],
              [
                121.61079599999985,
                31.2894379999995
              ],
              [
                121.61089099999984,
                31.289412999999485
              ],
              [
                121.61101899999983,
                31.28939899999947
              ],
              [
                121.61114199999982,
                31.28936999999945
              ],
              [
                121.6118319999998,
                31.289290999999345
              ],
              [
                121.61197099999977,
                31.289272999999323
              ],
              [
                121.61210499999976,
                31.2892329999993
              ],
              [
                121.61199999999975,
                31.288454999999317
              ],
              [
                121.61198199999977,
                31.288210999999322
              ],
              [
                121.6116009999998,
                31.28829299999938
              ],
              [
                121.61151699999981,
                31.288013999999393
              ],
              [
                121.61215699999975,
                31.287852999999288
              ],
              [
                121.61278299999968,
                31.28777299999918
              ],
              [
                121.61328999999965,
                31.28773499999908
              ],
              [
                121.6137329999996,
                31.287718999998994
              ],
              [
                121.61410499999955,
                31.28773099999891
              ],
              [
                121.61530499999938,
                31.287702999998626
              ],
              [
                121.61532799999938,
                31.288038999998623
              ],
              [
                121.61534699999939,
                31.289039999998618
              ],
              [
                121.61541099999936,
                31.290169999998604
              ],
              [
                121.61542099999936,
                31.291209999998607
              ],
              [
                121.61539799999936,
                31.292562999998616
              ],
              [
                121.61468699999946,
                31.29255599999879
              ],
              [
                121.61466999999948,
                31.29304799999879
              ],
              [
                121.61303099999968,
                31.29288499999914
              ],
              [
                121.61190399999977,
                31.292774999999338
              ],
              [
                121.61109099999982,
                31.292697999999465
              ],
              [
                121.61114499999981,
                31.292195999999457
              ],
              [
                121.61122899999981,
                31.29183099999944
              ],
              [
                121.61120299999983,
                31.291548999999446
              ],
              [
                121.61121399999983,
                31.291065999999443
              ],
              [
                121.61122099999982,
                31.290817999999444
              ],
              [
                121.61122099999982,
                31.29068499999944
              ],
              [
                121.61123799999982,
                31.29035499999944
              ],
              [
                121.61123799999982,
                31.289915999999437
              ],
              [
                121.61072899999985,
                31.28991899999951
              ],
              [
                121.61072599999984,
                31.28980799999951
              ],
              [
                121.61072599999984,
                31.28980799999951
              ]
            ]
          ]
        },
        "point": {
          "type": "Point",
          "coordinates": [
            121.61336542623046,
            31.290392270326297
          ]
        },
        "date": "2020-02-09"
      },
      {
        "name": "绿林路51弄",
        "geometry": {
          "type": "Point",
          "coordinates": [
            121.5486740000838,
            31.175265000058793
          ]
        },
        "point": {
          "type": "Point",
          "coordinates": [
            121.5486740000838,
            31.175265000058793
          ]
        },
        "date": "2020-02-09"
      },
      {
        "name": "地杰国际城E欧泊时光",
        "geometry": {
          "type": "Polygon",
          "coordinates": [
            [
              [
                121.57476200001521,
                31.15886900000937
              ],
              [
                121.57478600001517,
                31.158882000009346
              ],
              [
                121.57673500001248,
                31.159316000007575
              ],
              [
                121.57676200001242,
                31.159317000007555
              ],
              [
                121.5767810000124,
                31.159308000007535
              ],
              [
                121.57688000001228,
                31.159164000007454
              ],
              [
                121.57703500001207,
                31.159084000007322
              ],
              [
                121.57706000001204,
                31.1590630000073
              ],
              [
                121.57731200001173,
                31.158765000007094
              ],
              [
                121.57732000001171,
                31.15875000000709
              ],
              [
                121.57732200001172,
                31.158728000007088
              ],
              [
                121.57731000001172,
                31.158603000007094
              ],
              [
                121.57731600001172,
                31.158580000007092
              ],
              [
                121.57838400001043,
                31.156493000006265
              ],
              [
                121.57838400001043,
                31.156479000006264
              ],
              [
                121.57837600001044,
                31.15646700000627
              ],
              [
                121.57698800001214,
                31.156026000007362
              ],
              [
                121.57570300001386,
                31.155445000008477
              ],
              [
                121.57568500001388,
                31.155452000008495
              ],
              [
                121.5756690000139,
                31.15547100000851
              ],
              [
                121.57524700001451,
                31.156890000008904
              ],
              [
                121.57524200001451,
                31.15690000000891
              ],
              [
                121.57523200001452,
                31.156905000008916
              ],
              [
                121.57510100001471,
                31.156877000009043
              ],
              [
                121.57509000001473,
                31.156882000009052
              ],
              [
                121.57507900001474,
                31.156889000009063
              ],
              [
                121.57502300001482,
                31.157054000009115
              ],
              [
                121.57502200001484,
                31.15706600000912
              ],
              [
                121.57503300001481,
                31.157076000009106
              ],
              [
                121.57521700001453,
                31.15709600000893
              ],
              [
                121.57522600001452,
                31.157104000008925
              ],
              [
                121.57522800001452,
                31.15711800000892
              ],
              [
                121.57509800001472,
                31.157506000009047
              ],
              [
                121.57475400001522,
                31.158848000009378
              ],
              [
                121.57476200001521,
                31.15886900000937
              ],
              [
                121.57476200001521,
                31.15886900000937
              ]
            ]
          ]
        },
        "point": {
          "type": "Point",
          "coordinates": [
            121.57641990882736,
            31.157467440584178
          ]
        },
        "date": "2020-02-09"
      },
      {
        "name": "上海贺普药业股份有限公司",
        "geometry": {
          "type": "Point",
          "coordinates": [
            121.6062810000102,
            31.19493900010184
          ]
        },
        "point": {
          "type": "Point",
          "coordinates": [
            121.6062810000102,
            31.19493900010184
          ]
        },
        "date": "2020-02-08"
      },
      {
        "name": "共康雅苑（二期）",
        "geometry": {
          "type": "Polygon",
          "coordinates": [
            [
              [
                121.4197950000016,
                31.331037000001054
              ],
              [
                121.41969100000156,
                31.331508000001033
              ],
              [
                121.41969300000156,
                31.33153500000103
              ],
              [
                121.41971200000158,
                31.331559000001036
              ],
              [
                121.4197560000016,
                31.33157500000105
              ],
              [
                121.42258700000284,
                31.331804000001874
              ],
              [
                121.4227000000029,
                31.331794000001906
              ],
              [
                121.42277700000295,
                31.33176200000194
              ],
              [
                121.42284300000298,
                31.331717000001962
              ],
              [
                121.42287800000301,
                31.331666000001977
              ],
              [
                121.42292100000303,
                31.33155900000199
              ],
              [
                121.42316300000317,
                31.330737000002085
              ],
              [
                121.42331600000325,
                31.33015600000214
              ],
              [
                121.4235500000034,
                31.32922500000224
              ],
              [
                121.4235470000034,
                31.329178000002234
              ],
              [
                121.42352600000338,
                31.329141000002227
              ],
              [
                121.42349400000336,
                31.329121000002214
              ],
              [
                121.42297200000307,
                31.32902600000201
              ],
              [
                121.420808000002,
                31.328655000001316
              ],
              [
                121.42062400000192,
                31.328641000001266
              ],
              [
                121.4205710000019,
                31.32865700000125
              ],
              [
                121.42053700000189,
                31.32868000000124
              ],
              [
                121.42052400000188,
                31.328709000001236
              ],
              [
                121.42040900000184,
                31.329103000001208
              ],
              [
                121.4202640000018,
                31.32950400000117
              ],
              [
                121.41991300000163,
                31.330664000001082
              ],
              [
                121.4197950000016,
                31.331037000001054
              ],
              [
                121.4197950000016,
                31.331037000001054
              ]
            ]
          ]
        },
        "point": {
          "type": "Point",
          "coordinates": [
            121.4216296082474,
            31.330286439675056
          ]
        },
        "date": "2020-02-08"
      },